settlement_id,settlement_code,settlement_name,adm2_code,longitude,latitude,pashtun_greg,pashtun_ethno
1,AF0101_V_0001,3 Rahi Khaja Boghra,AF0101,69.1595570691327,34.5817290340545,1.0,1.0
2,AF0101_V_0003,Afshar Silo,AF0101,69.1147802962712,34.525166415342,1.0,1.0
3,AF0101_V_0004,Afshari Bala,AF0101,69.0869,34.5366,1.0,1.0
4,AF0101_V_0007,Afsotar,AF0101,69.1168682840657,34.5679973283843,1.0,1.0
5,AF0101_V_0011,Alawuddini Payin (karta-i-se),AF0101,69.1329,34.4914,1.0,1.0
6,AF0101_V_0013,Aliabad,AF0101,69.123,34.5193,1.0,1.0
7,AF0101_V_0014,Aqa Alishams,AF0101,69.155,34.4817,1.0,1.0
8,AF0101_V_0015,Aqab Jakshan Barq,AF0101,69.1665940183993,34.5675389254964,1.0,1.0
9,AF0101_V_0016,Aqab Silo Markaz,AF0101,69.1247394922431,34.523528822362,1.0,1.0
10,AF0101_V_0017,Aqabi guzar baristan,AF0101,69.1444711032638,34.5340603600678,1.0,1.0
11,AF0101_V_0018,Asya-i-bini,AF0101,69.0464,34.5072,1.0,1.0
12,AF0101_V_0019,Ayoub Khan Mina Hesa Awal,AF0101,69.1432486520033,34.4839993721158,1.0,1.0
13,AF0101_V_0026,Baghrayees,AF0101,69.1576899520641,34.4938467942435,1.0,1.0
14,AF0101_V_0027,Baharistan,AF0101,69.1441190705088,34.5324565355082,1.0,1.0
15,AF0101_V_0028,Bala Kohe Molabezorg,AF0101,69.1604704481622,34.4974976262495,1.0,1.0
16,AF0101_V_0029,Bala Kohe Qurta,AF0101,69.17318259,34.51294951,1.0,1.0
17,AF0101_V_0030,Bala Kohi Afshar,AF0101,69.0843309035652,34.5403570271182,1.0,1.0
18,AF0101_V_0031,Bala kuh qoul ab Chakan,AF0101,69.161493982147,34.5248724386041,1.0,1.0
19,AF0101_V_0032,Balayi Qabristani 500 Family,AF0101,69.1483536520679,34.5908379626028,1.0,1.0
20,AF0101_V_0040,Block Hai Sharwali,AF0101,69.1233604326166,34.5548831524992,1.0,1.0
21,AF0101_V_0041,Block Hai Tahya Maskan,AF0101,69.1272891759778,34.553773869183,1.0,1.0
22,AF0101_V_0043,Brishnakot,AF0101,69.1597650034999,34.4993170473045,1.0,1.0
23,AF0101_V_0045,Chahar Qala,AF0101,69.1696494602924,34.5562626091973,1.0,1.0
24,AF0101_V_0046,Chahar Qala Chahar Dehi,AF0101,69.1041,34.4858,1.0,1.0
25,AF0101_V_0047,Chahar Qulba,AF0101,69.13412356,34.45859909,1.0,1.0
26,AF0101_V_0054,Dash Ha & 12 Emam,AF0101,69.1220741375304,34.4997504486512,1.0,1.0
27,AF0101_V_0058,Dewanbegi,AF0101,69.1011994746538,34.515305753886,1.0,1.0
28,AF0101_V_0060,Dih Dana,AF0101,69.1167,34.4658,1.0,1.0
29,AF0101_V_0063,Dih Mazang,AF0101,69.1528,34.5121,1.0,1.0
30,AF0101_V_0064,Dih Murad Khan,AF0101,69.1485,34.4827,1.0,1.0
31,AF0101_V_0065,Dih Naw Dehbory,AF0101,69.1250395076864,34.5136092893297,1.0,1.0
32,AF0101_V_0066,Dih Qabil,AF0101,69.099,34.5032,1.0,1.0
33,AF0101_V_0070,Faizabad 500 Family,AF0101,69.1470818504491,34.5908756827074,1.0,1.0
34,AF0101_V_0071,Family Reshkhor,AF0101,69.1308562226892,34.4693788636173,1.0,1.0
35,AF0101_V_0074,Gozar Sarai Shamali,AF0101,69.1256391037403,34.5612202529949,1.0,1.0
36,AF0101_V_0076,Gulai Hesa Awal,AF0101,69.1229827698483,34.5726132912554,1.0,1.0
37,AF0101_V_0077,Gulayi Khwaja Bughra,AF0101,69.1562845526449,34.5777579471493,1.0,1.0
38,AF0101_V_0078,Gulkhana,AF0101,69.1082,34.4969,1.0,1.0
39,AF0101_V_0081,Guzar Kharabad,AF0101,69.17144603,34.51294299,1.0,1.0
40,AF0101_V_0083,Guzare Mula Buzurg Wasel Abad,AF0101,69.1606,34.492,1.0,1.0
41,AF0101_V_0084,Guzare Tanikot,AF0101,69.1617680046173,34.4610051048543,1.0,1.0
42,AF0101_V_0085,Guzari Aqibe Takhnikom,AF0101,69.1584593324231,34.4611811220281,1.0,1.0
43,AF0101_V_0088,Hayat Abad,AF0101,69.225373,34.532882,1.0,1.0
44,AF0101_V_0090,Hazara-i-baghal,AF0101,69.1159,34.5883,1.0,1.0
45,AF0101_V_0091,Hese 2 Musahi,AF0101,69.1572754107495,34.4802785667246,1.0,1.0
46,AF0101_V_0092,Hese 2 Zakrin,AF0101,69.0811611205001,34.5793043857267,1.0,1.0
47,AF0101_V_0093,Hese Awale Chihilseton,AF0101,69.1615703123321,34.4654838212066,1.0,1.0
48,AF0101_V_0094,Hesi Awal Qala Hashmat Khan,AF0101,69.18581948,34.49191208,1.0,1.0
49,AF0101_V_0095,Hesi Dowome Chehilsiton,AF0101,69.1557927691179,34.4661409204863,1.0,1.0
50,AF0101_V_0098,Hise Dowom Qala Fatooh,AF0101,69.14293605,34.43638493,1.0,1.0
51,AF0101_V_0102,Jangalak,AF0101,69.1527,34.4915,1.0,1.0
52,AF0101_V_0103,Jaye Rayees,AF0101,69.1565154471392,34.4853228602046,1.0,1.0
53,AF0101_V_0105,Kampani,AF0101,69.06,34.53,1.0,1.0
54,AF0101_V_0106,Karte Chahar,AF0101,69.1387512708561,34.5067068423567,1.0,1.0
55,AF0101_V_0107,Karte Mamorin,AF0101,69.1224810207503,34.5287364232449,1.0,1.0
56,AF0101_V_0108,Karte Nejat/ Qarye Alfath,AF0101,69.0668343658913,34.6038489845784,1.0,1.0
57,AF0101_V_0109,Karte Sakhi,AF0101,69.1456940019013,34.5201729866377,1.0,1.0
58,AF0101_V_0113,Khwaja Bughra Jadid,AF0101,69.1717426270046,34.5766500544987,1.0,1.0
59,AF0101_V_0114,Khwaja Bughra Jadid Bala,AF0101,69.1519836777475,34.600858329193,1.0,1.0
60,AF0101_V_0115,Khwaja Bughra Maqabel Gard,AF0101,69.1603362876837,34.5792334619702,1.0,1.0
61,AF0101_V_0116,Khwaja Jam,AF0101,69.0508,34.5291,1.0,1.0
62,AF0101_V_0119,Khwaja Safa,AF0101,69.17254331,34.51363045,1.0,1.0
63,AF0101_V_0120,Kochi Saraji,AF0101,69.17288151,34.51190103,1.0,1.0
64,AF0101_V_0121,Koh Shir Darwaza-Pule Artal,AF0101,69.1769707205838,34.5139014381951,1.0,1.0
65,AF0101_V_0122,Koti Sangi,AF0101,69.1182756023976,34.5123245052467,1.0,1.0
66,AF0101_V_0125,Lesa Maryam,AF0101,69.145234314948,34.5782247714885,1.0,1.0
67,AF0101_V_0126,Masjed Salman Fars,AF0101,69.1636283406175,34.5817633837079,1.0,1.0
68,AF0101_V_0127,Masjedi Itefaq,AF0101,69.2116999466205,34.5068660212208,1.0,1.0
69,AF0101_V_0136,Musahi Bala,AF0101,69.1591835228916,34.4814086351276,1.0,1.0
70,AF0101_V_0140,Naw Abad astana,AF0101,69.1765187403401,34.556494810591,1.0,1.0
71,AF0101_V_0142,Naw Abad Dehmorad Khan,AF0101,69.1513439016003,34.4829334531276,1.0,1.0
72,AF0101_V_0144,Naw Abad Jabar Khan (PD 6),AF0101,69.116013990666,34.5007287705964,1.0,1.0
73,AF0101_V_0146,Naw Abad Wasal Abad,AF0101,69.1607849437815,34.490238225157,1.0,1.0
74,AF0101_V_0147,Nawabad Aqab 500 Family,AF0101,69.1467941285007,34.5894740360479,1.0,1.0
75,AF0101_V_0148,Nawabadi Dihkipak,AF0101,69.1193,34.5464,1.0,1.0
76,AF0101_V_0149,New abad qoul ab Chakan,AF0101,69.163249201967,34.5239069151246,1.0,1.0
77,AF0101_V_0152,Now Abad Family Hai Reshkhor,AF0101,69.142607,34.430876,1.0,1.0
78,AF0101_V_0153,Now Abad Said Noor Mohammad Shah Mina,AF0101,69.232237,34.515395,1.0,1.0
79,AF0101_V_0154,Paikub wazirabad,AF0101,69.1591415463808,34.5538539320666,1.0,1.0
80,AF0101_V_0155,Panch Piran,AF0101,69.114157469555,34.5932632852313,1.0,1.0
81,AF0101_V_0157,PD1 Bagh-e- Ali Mardan,AF0101,69.1686676893881,34.5118177158225,1.0,1.0
82,AF0101_V_0158,PD1 Chindawol,AF0101,69.1740369515951,34.5111156097448,1.0,1.0
83,AF0101_V_0160,PD1 Darwazi Lawry,AF0101,69.1916728997262,34.5122063334539,1.0,1.0
84,AF0101_V_0161,PD1 Rekahkhana,AF0101,69.1902565677313,34.5164111638923,1.0,1.0
85,AF0101_V_0163,PD1 Shah Najaf,AF0101,69.1750248933114,34.5099705605985,1.0,1.0
86,AF0101_V_0164,PD11  Aqeb Lawai Shanzda,AF0101,69.1168002238602,34.5756846763029,1.0,1.0
87,AF0101_V_0165,PD11 Naw Abad Prozha Jadid Khair Khana,AF0101,69.1414682061018,34.5861488700929,1.0,1.0
88,AF0101_V_0166,Project Taimani,AF0101,69.153181711188,34.5552054425838,1.0,1.0
89,AF0101_V_0167,Prozha Panj Khair Khana,AF0101,69.1223649944762,34.597423894307,1.0,1.0
90,AF0101_V_0169,Pule Artal,AF0101,69.1558067576294,34.5121252006598,1.0,1.0
91,AF0101_V_0171,Qabristan 500 Family,AF0101,69.1482138047938,34.5897477651216,1.0,1.0
92,AF0101_V_0172,Qala Ali Mardan,AF0101,69.1085973251231,34.4814791101245,1.0,1.0
93,AF0101_V_0175,Qala Jabar Khan,AF0101,69.11536612232,34.5040482432811,1.0,1.0
94,AF0101_V_0176,Qala Nazer,AF0101,69.0874,34.5215,1.0,1.0
95,AF0101_V_0177,Qala Nazer (PD 6),AF0101,69.1142130144841,34.4960904513009,1.0,1.0
96,AF0101_V_0178,Qala Sultan Jan,AF0101,69.0066522795522,34.4636917264021,1.0,1.0
97,AF0101_V_0181,Qalachi Khomdan,AF0101,69.2256926977279,34.4883814985079,1.0,1.0
98,AF0101_V_0183,Qala-e Laghmani Ha,AF0101,69.2141669650556,34.5421148605931,1.0,1.0
99,AF0101_V_0188,Qala-i- Bakhtyar,AF0101,69.1068,34.4713,1.0,1.0
100,AF0101_V_0190,Qala-i- Fatooh,AF0101,69.1429,34.4392,1.0,1.0
101,AF0101_V_0191,Qalai Gernail,AF0101,69.105182,34.517376,1.0,1.0
102,AF0101_V_0194,Qala-i- Hashmat Khan,AF0101,69.1882,34.492,1.0,1.0
103,AF0101_V_0203,Qala-i- Muhammad Hayat Khan,AF0101,69.0881,34.4843,1.0,1.0
104,AF0101_V_0206,Qala-i- Najar Ha,AF0101,69.1303,34.4498,1.0,1.0
105,AF0101_V_0208,Qala-i- Pakhchak,AF0101,69.1009,34.481,1.0,1.0
106,AF0101_V_0213,Qala-i- Wazeer,AF0101,69.0642,34.5291,1.0,1.0
107,AF0101_V_0215,Qala-i-musa,AF0101,69.1767,34.5447,1.0,1.0
108,AF0101_V_0225,Qargha,AF0101,69.0536,34.5477,1.0,1.0
109,AF0101_V_0226,Qarye Khwaja Bughra,AF0101,69.1603263460274,34.5803633149737,1.0,1.0
110,AF0101_V_0228,Qesmat 1 Cheshma Kotal,AF0101,69.0972643282056,34.5765952526384,1.0,1.0
111,AF0101_V_0229,Qesmat 2 Cheshma Kotal,AF0101,69.0959168773146,34.5760085451342,1.0,1.0
112,AF0101_V_0230,Qesmat e 1 Shaharak e Wahdat,AF0101,69.0764069244502,34.5960490235751,1.0,1.0
113,AF0101_V_0231,Qesmat e 2 Shahrak e Wahdat,AF0101,69.0680136800421,34.5954633245501,1.0,1.0
114,AF0101_V_0233,Rahman Mena,AF0101,69.2264,34.5066,1.0,1.0
115,AF0101_V_0237,Samt-e-Shamal Neyazbeg,AF0101,69.0955225568896,34.5175304301766,1.0,1.0
116,AF0101_V_0238,Sanatoryam,AF0101,69.1158346560423,34.4635130326763,1.0,1.0
117,AF0101_V_0240,Sarai Ghazni,AF0101,69.1327694516565,34.5075526317363,1.0,1.0
118,AF0101_V_0243,Saraki Payen,AF0101,69.222202,34.528073,1.0,1.0
119,AF0101_V_0246,Sare Tapee Karte Naw,AF0101,69.2396998966935,34.5112751490972,1.0,1.0
120,AF0101_V_0247,Sarepol Khwaja Bughra,AF0101,69.1632918729644,34.5909402688339,1.0,1.0
121,AF0101_V_0248,Shah Shaheed,AF0101,69.1995811119137,34.5078174585319,1.0,1.0
122,AF0101_V_0249,Shahrak Abdullah Ansaree,AF0101,69.0258853674086,34.4756925402449,1.0,1.0
123,AF0101_V_0250,Shahrak e Adrogul,AF0101,69.0806384565644,34.6233316903806,1.0,1.0
124,AF0101_V_0251,Shahrak e Amniat Mili,AF0101,69.2320883334519,34.5767272403211,1.0,1.0
125,AF0101_V_0252,Shahrak e Pamir,AF0101,69.08572180073,34.5918944421571,1.0,1.0
126,AF0101_V_0254,Shahrak Enkeshafi kamyab,AF0101,69.0966441745454,34.5889635321262,1.0,1.0
127,AF0101_V_0255,Shahrak Enkeshafi Tilahi,AF0101,69.0869182672489,34.6145101508253,1.0,1.0
128,AF0101_V_0256,Shahrak Mahdia (1),AF0101,69.0590062064938,34.4738604449568,1.0,1.0
129,AF0101_V_0257,Shahrak Mahdia (2),AF0101,69.058134108468,34.4838500795132,1.0,1.0
130,AF0101_V_0258,Shahrak Omid Sabz,AF0101,69.0906427170016,34.4682837189455,1.0,1.0
131,AF0101_V_0259,Shahrak Safa (PD 17),AF0101,69.0815480200793,34.6033022885061,1.0,1.0
132,AF0101_V_0260,Shahrak Sulh,AF0101,69.0821928869842,34.5999308856439,1.0,1.0
133,AF0101_V_0261,Shahrak Surkhabad,AF0101,69.0419063167212,34.4786780432414,1.0,1.0
134,AF0101_V_0262,Shahrak Wahdat (PD 17),AF0101,69.0823768603826,34.5966483585412,1.0,1.0
135,AF0101_V_0264,Shahrake Kamyab Sare Kotal,AF0101,69.0882884722106,34.5863028575261,1.0,1.0
136,AF0101_V_0265,Shahrake Telayee (PD 17),AF0101,69.0800262477174,34.6099261665917,1.0,1.0
137,AF0101_V_0266,Shahrake Zakrin,AF0101,69.0770519139586,34.5789487180207,1.0,1.0
138,AF0101_V_0270,Sharak 12 Emam - Sarpol,AF0101,69.0845567508919,34.5024984072897,1.0,1.0
139,AF0101_V_0271,Shash Darak,AF0101,69.1940475148982,34.529913578545,1.0,1.0
140,AF0101_V_0276,Tahia Maskan 90 Family,AF0101,69.12838352357,34.5515721028525,1.0,1.0
141,AF0101_V_0277,Tahreyan,AF0101,69.1669899598505,34.5631582106521,1.0,1.0
142,AF0101_V_0280,Tangi Logar,AF0101,69.22224943,34.48624029,1.0,1.0
143,AF0101_V_0281,Tangi Tara Khail Angor Bagh,AF0101,69.2446016696818,34.5653995096791,1.0,1.0
144,AF0101_V_0284,Tape Bini Hesar,AF0101,69.1916426479865,34.491941515774,1.0,1.0
145,AF0101_V_0285,Tape Maranjan,AF0101,69.20515197391,34.5145977555439,1.0,1.0
146,AF0101_V_0286,Tape Mula Buzurg,AF0101,69.16063463,34.49547456,1.0,1.0
147,AF0101_V_0291,Udkhel,AF0101,69.2643,34.5372,1.0,1.0
148,AF0101_V_0292,Unchee Baghbanan,AF0101,69.0884,34.5051,1.0,1.0
149,AF0101_V_0293,Wasal Abad Masjede Jamy,AF0101,69.1580303689274,34.4920000624632,1.0,1.0
150,AF0101_V_0296,Zer Tasadi,AF0101,69.0824889372766,34.5824313509378,1.0,1.0
151,AF0101_V_0300,Bist Hazari,AF0101,69.0847824025517,34.4998426812888,1.0,1.0
152,AF0101_V_0301,Guzar Sang Tarashi,AF0101,69.1895633582725,34.5155561925901,1.0,1.0
153,AF0102_V_0003,Allah Qouli,AF0102,68.9446,34.5953,1.0,1.0
154,AF0102_V_0010,Babo,AF0102,69.0044,34.5515,1.0,1.0
155,AF0102_V_0011,Badam Qoul,AF0102,68.8772,34.4702,1.0,1.0
156,AF0102_V_0014,Baig Toot,AF0102,68.9434,34.5566,1.0,1.0
157,AF0102_V_0017,Bar Arghandy,AF0102,68.90746,34.48383,1.0,1.0
158,AF0102_V_0028,Dahi Arbab,AF0102,69.0131,34.5616,1.0,1.0
159,AF0102_V_0029,Dahi Meyana,AF0102,68.9559,34.5981,1.0,1.0
160,AF0102_V_0035,Do Dahi Mast,AF0102,69.0062,34.5664,1.0,1.0
161,AF0102_V_0036,Dorahee,AF0102,69.045651627098,34.53271504964,1.0,1.0
162,AF0102_V_0039,Eassa Khail,AF0102,68.9792,34.5864,1.0,1.0
163,AF0102_V_0044,Gul Ghundi,AF0102,68.8647,34.527,1.0,1.0
164,AF0102_V_0067,Khwaja Jam,AF0102,69.019405,34.540851,1.0,1.0
165,AF0102_V_0085,Nader Khail,AF0102,68.9705,34.5949,1.0,1.0
166,AF0102_V_0087,Now Abad Safid Sang,AF0102,69.019125,34.533727,1.0,1.0
167,AF0102_V_0091,Pashaye,AF0102,68.9636,34.5807,1.0,1.0
168,AF0102_V_0097,Qala Agha,AF0102,69.0115,34.54,1.0,1.0
169,AF0102_V_0104,Qala Faizullah,AF0102,68.9968,34.5498,1.0,1.0
170,AF0102_V_0117,Qala Omar Khan,AF0102,68.9722,34.574,1.0,1.0
171,AF0102_V_0137,Qal'eh-ye Malek,AF0102,68.9817,34.57453,1.0,1.0
172,AF0102_V_0155,Safid Sang,AF0102,69.0405,34.5454,1.0,1.0
173,AF0102_V_0158,Sang Safid,AF0102,68.9536,34.5997,1.0,1.0
174,AF0103_V_0002,Ali Khail,AF0103,69.0948,34.3245,1.0,1.0
175,AF0103_V_0003,Alikhail-e-Angorbagh,AF0103,69.10745243,34.33427256,1.0,1.0
176,AF0103_V_0009,Bala Qala Char Asiyab,AF0103,69.1428,34.4148,1.0,1.0
177,AF0103_V_0013,Chahar Suq,AF0103,69.1583,34.409,1.0,1.0
178,AF0103_V_0014,Char Qala,AF0103,69.0353,34.3903,1.0,1.0
179,AF0103_V_0016,Chehl Dukhtaran,AF0103,69.124,34.3759,1.0,1.0
180,AF0103_V_0018,Farmely Tangi Sayidan,AF0103,69.1143,34.4188,1.0,1.0
181,AF0103_V_0019,Ghazi Abad,AF0103,69.15657892,34.41791134,1.0,1.0
182,AF0103_V_0022,Gulbagh,AF0103,69.1334,34.4217,1.0,1.0
183,AF0103_V_0023,Gulzar,AF0103,69.1699,34.3936,1.0,1.0
184,AF0103_V_0025,Halyas Khail,AF0103,69.1436,34.3947,1.0,1.0
185,AF0103_V_0026,Ismail Khail,AF0103,69.08800163,34.31835167,1.0,1.0
186,AF0103_V_0031,Khair Abad,AF0103,69.1751,34.4188,1.0,1.0
187,AF0103_V_0033,Kodi,AF0103,69.0723,34.341,1.0,1.0
188,AF0103_V_0037,Myakhail Ha,AF0103,69.10509032,34.38903872,1.0,1.0
189,AF0103_V_0038,Naw Abad Khair Abad,AF0103,69.18182769,34.42239512,1.0,1.0
190,AF0103_V_0040,Now Neyaz,AF0103,69.1163,34.3512,1.0,1.0
191,AF0103_V_0042,Qala Bawar,AF0103,69.1467,34.389,1.0,1.0
192,AF0103_V_0044,Qala Jalal,AF0103,69.1187,34.4101,1.0,1.0
193,AF0103_V_0045,Qala Jan Khan,AF0103,69.1155,34.4145,1.0,1.0
194,AF0103_V_0047,Qala Koh,AF0103,69.0907,34.4071,1.0,1.0
195,AF0103_V_0049,Qala Luqman,AF0103,69.1118,34.4068,1.0,1.0
196,AF0103_V_0051,Qala Nahim,AF0103,69.1677,34.3981,1.0,1.0
197,AF0103_V_0052,Qala Omar Khan,AF0103,69.0595,34.3969,1.0,1.0
198,AF0103_V_0053,Qala Safid,AF0103,69.0735,34.3555,1.0,1.0
199,AF0103_V_0055,Qalae Aslam,AF0103,69.12135606,34.32496413,1.0,1.0
200,AF0103_V_0056,Qal'eh-ye Atamohammad-khan,AF0103,69.0825,34.3961,1.0,1.0
201,AF0103_V_0059,Qal'eh-ye Loku,AF0103,69.09629,34.35639,1.0,1.0
202,AF0103_V_0064,Qaleh-ye Neshan,AF0103,69.1148,34.3216,1.0,1.0
203,AF0103_V_0069,Qoul Jous,AF0103,69.117233,34.416343,1.0,1.0
204,AF0103_V_0071,Rishkhore Olya,AF0103,69.12642573,34.42375157,1.0,1.0
205,AF0103_V_0073,Said Khail,AF0103,69.09164913,34.38821885,1.0,1.0
206,AF0103_V_0077,Shah Toot,AF0103,69.0872,34.3923,1.0,1.0
207,AF0103_V_0078,Shahbay,AF0103,69.057,34.3577,1.0,1.0
208,AF0103_V_0079,Shetor Dara,AF0103,69.038515,34.397858,1.0,1.0
209,AF0103_V_0081,Tajeki Lalandar,AF0103,69.0301,34.3965,1.0,1.0
210,AF0104_V_0002,Aka Khail,AF0104,69.2385017327951,34.4733672479474,1.0,1.0
211,AF0104_V_0003,Alo Khail,AF0104,69.2771,34.5264,1.0,1.0
212,AF0104_V_0005,Bagrami,AF0104,69.32171458,34.51562961,1.0,1.0
213,AF0104_V_0006,Butkhak,AF0104,69.3522,34.5045,1.0,1.0
214,AF0104_V_0007,Char Khab,AF0104,69.1905,34.4631,1.0,1.0
215,AF0104_V_0008,Dahi Yaqoub,AF0104,69.2306,34.4601,1.0,1.0
216,AF0104_V_0009,Gard Kol Qoul,AF0104,69.25257,34.48693,1.0,1.0
217,AF0104_V_0010,Gosfand Dara,AF0104,69.3734,34.4555,1.0,1.0
218,AF0104_V_0012,Hise 1 Gard Kol Qoul,AF0104,69.254955402475,34.4831291263347,1.0,1.0
219,AF0104_V_0014,Hussain Khail,AF0104,69.3016,34.4874,1.0,1.0
220,AF0104_V_0015,Kamari,AF0104,69.2775,34.4728,1.0,1.0
221,AF0104_V_0017,Mamozai,AF0104,69.2539,34.4554,1.0,1.0
222,AF0104_V_0019,Meya Khail,AF0104,69.2331,34.4511,1.0,1.0
223,AF0104_V_0021,Naw Abad,AF0104,69.3027922,34.50035144,1.0,1.0
224,AF0104_V_0023,Qala Ahmad Khan,AF0104,69.2618,34.5066,1.0,1.0
225,AF0104_V_0026,Qala Hassan Khan Hulya,AF0104,69.2249,34.4648,1.0,1.0
226,AF0104_V_0027,Qala Hassan Khan Payen,AF0104,69.2452,34.4666,1.0,1.0
227,AF0104_V_0031,Qala Neyazi,AF0104,69.2159,34.4706,1.0,1.0
228,AF0104_V_0032,Qala Noman,AF0104,69.2472,34.4905,1.0,1.0
229,AF0104_V_0049,Sahak,AF0104,69.2187,34.4544,1.0,1.0
230,AF0104_V_0050,Sayfuddin,AF0104,69.2606,34.4579,1.0,1.0
231,AF0104_V_0052,Shamroz Abad,AF0104,69.3031080844507,34.5272616171466,1.0,1.0
232,AF0104_V_0053,Shena,AF0104,69.2937,34.5211,1.0,1.0
233,AF0104_V_0054,Shewaki,AF0104,69.2332,34.4568,1.0,1.0
234,AF0105_V_0001,Abdara Hulya,AF0105,69.3562,34.7144,1.0,1.0
235,AF0105_V_0002,Abdara Sufla,AF0105,69.3174,34.7099,1.0,1.0
236,AF0105_V_0007,Ali Khail Qala Jaje,AF0105,69.37983,34.63274,1.0,1.0
237,AF0105_V_0010,Baba Qashqar,AF0105,69.3621,34.6777,1.0,1.0
238,AF0105_V_0011,Bakhtyaran,AF0105,69.2773,34.6066,1.0,1.0
239,AF0105_V_0012,Bandi Khana,AF0105,69.2445,34.7116,1.0,1.0
240,AF0105_V_0015,Dahi Sabz Khas,AF0105,69.3865,34.6391,1.0,1.0
241,AF0105_V_0016,Dahi Yahya,AF0105,69.2392,34.603,1.0,1.0
242,AF0105_V_0020,Gagar,AF0105,69.2584,34.7481,1.0,1.0
243,AF0105_V_0021,Ghazi Abad,AF0105,69.3901,34.5478,1.0,1.0
244,AF0105_V_0024,Jaro,AF0105,69.3165,34.7251,1.0,1.0
245,AF0105_V_0027,Kata Khail,AF0105,69.3497,34.6083,1.0,1.0
246,AF0105_V_0029,Khowja Chasht,AF0105,69.2376,34.6446,1.0,1.0
247,AF0105_V_0030,Khowja Ghar,AF0105,69.4019,34.624,1.0,1.0
248,AF0105_V_0031,Kota Ha,AF0105,69.3792,34.6601,1.0,1.0
249,AF0105_V_0037,Paimanar,AF0105,69.2094,34.6022,1.0,1.0
250,AF0105_V_0040,Qala Afzal Khan,AF0105,69.21,34.6476,1.0,1.0
251,AF0105_V_0042,Qala Haji Sahib,AF0105,69.2154,34.6749,1.0,1.0
252,AF0105_V_0048,Qala Rustam,AF0105,69.3393,34.6757,1.0,1.0
253,AF0105_V_0049,Qala Zaren,AF0105,69.2621,34.609,1.0,1.0
254,AF0105_V_0051,Qal'eh-ye Haji Mohammad Afzalkhan,AF0105,69.2004,34.6485,1.0,1.0
255,AF0105_V_0052,Safi Kot,AF0105,69.36483059,34.56951413,1.0,1.0
256,AF0105_V_0053,Sang Aw,AF0105,69.233,34.7415,1.0,1.0
257,AF0105_V_0059,Shani Kalay,AF0105,69.3567,34.6408,1.0,1.0
258,AF0105_V_0060,Shorab,AF0105,69.2279,34.703,1.0,1.0
259,AF0105_V_0064,Tangi Gharo,AF0105,69.3958,34.5722,1.0,1.0
260,AF0105_V_0067,Tara Khail,AF0105,69.2562,34.5849,1.0,1.0
261,AF0106_V_0067,Qala Dasht,AF0106,69.0964,34.6572,1.0,1.0
262,AF0107_V_0003,Ahangaran,AF0107,69.2026,34.3609,1.0,1.0
263,AF0107_V_0004,Ahmad Khail,AF0107,69.1615,34.3382,1.0,1.0
264,AF0107_V_0005,Akhund Dara,AF0107,69.286,34.3756,1.0,1.0
265,AF0107_V_0006,Alamkhan Kala,AF0107,69.22319,34.3774,1.0,1.0
266,AF0107_V_0008,Alo Khail Payen,AF0107,69.1633,34.3232,1.0,1.0
267,AF0107_V_0010,Bagh-e-Kalan,AF0107,69.16991505,34.3267474,1.0,1.0
268,AF0107_V_0011,Bar Meya Khail,AF0107,69.1827,34.3322,1.0,1.0
269,AF0107_V_0014,Dahi Kalan,AF0107,69.1713,34.3228,1.0,1.0
270,AF0107_V_0015,Gar Gab,AF0107,69.2745,34.3642,1.0,1.0
271,AF0107_V_0016,Guldara,AF0107,69.2451,34.3898,1.0,1.0
272,AF0107_V_0018,Haji Khail,AF0107,69.2187,34.3509,1.0,1.0
273,AF0107_V_0019,Haji Malang,AF0107,69.2108,34.3546,1.0,1.0
274,AF0107_V_0021,Hussain Khail,AF0107,69.1701,34.3319,1.0,1.0
275,AF0107_V_0024,Khanan Khail Bala,AF0107,69.1891,34.341,1.0,1.0
276,AF0107_V_0025,Khanan Khail Payen,AF0107,69.18706246,34.3426667,1.0,1.0
277,AF0107_V_0027,Kotgay,AF0107,69.2413,34.3741,1.0,1.0
278,AF0107_V_0030,Mohen Khail,AF0107,69.2258,34.3881,1.0,1.0
279,AF0107_V_0032,Pache,AF0107,69.29,34.4031,1.0,1.0
280,AF0107_V_0036,Qala Abdul Raouf,AF0107,69.2183,34.3671,1.0,1.0
281,AF0107_V_0038,Qala Janan,AF0107,69.1711,34.3503,1.0,1.0
282,AF0107_V_0039,Qala Kohna,AF0107,69.2001,34.3723,1.0,1.0
283,AF0107_V_0040,Qala Malik Faiz Mohammad,AF0107,69.1576205,34.33982219,1.0,1.0
284,AF0107_V_0041,Qala Mufte,AF0107,69.2256,34.3782,1.0,1.0
285,AF0107_V_0042,Qalae Ahmad Khan,AF0107,69.22123537,34.37565109,1.0,1.0
286,AF0107_V_0044,Qalae Mohammad Hashem Khan,AF0107,69.25293112,34.39137978,1.0,1.0
287,AF0107_V_0045,Qalai Koh Maidan,AF0107,69.1473423,34.32842516,1.0,1.0
288,AF0107_V_0046,Qalaye Azizullah,AF0107,69.19704519,34.34064064,1.0,1.0
289,AF0107_V_0047,Qalaye Basqoli,AF0107,69.21415663,34.33785252,1.0,1.0
290,AF0107_V_0048,Qaleh-ye Chaman,AF0107,69.2044,34.3568,1.0,1.0
291,AF0107_V_0051,Qalta Ghan,AF0107,69.1671,34.3414,1.0,1.0
292,AF0107_V_0052,Qari Abad,AF0107,69.18465759,34.32861862,1.0,1.0
293,AF0107_V_0053,Qeshlaq Hulya,AF0107,69.2329,34.3995,1.0,1.0
294,AF0107_V_0054,Qeshlaqi Sufla,AF0107,69.2245,34.4126,1.0,1.0
295,AF0107_V_0055,Rahmat Abad,AF0107,69.147,34.3205,1.0,1.0
296,AF0107_V_0056,Sahak,AF0107,69.17157278,34.34069884,1.0,1.0
297,AF0107_V_0057,Sange Nawshta,AF0107,69.20837292,34.33721108,1.0,1.0
298,AF0107_V_0058,Sayid Khail,AF0107,69.224,34.3952,1.0,1.0
299,AF0107_V_0060,Shad Khana,AF0107,69.1851,34.3262,1.0,1.0
300,AF0107_V_0061,Shad Khana Sofla,AF0107,69.19159592,34.33968108,1.0,1.0
301,AF0107_V_0063,Shenkai,AF0107,69.2572,34.3511,1.0,1.0
302,AF0107_V_0064,Sherin Baba,AF0107,69.15465592,34.32169621,1.0,1.0
303,AF0107_V_0065,Soryawon,AF0107,69.1956,34.3341,1.0,1.0
304,AF0107_V_0067,Syahjoy (1),AF0107,69.1705,34.335,1.0,1.0
305,AF0107_V_0069,Tangi Abdul Rahimzay,AF0107,69.16982426,34.32061734,1.0,1.0
306,AF0107_V_0071,Zara Kala,AF0107,69.2177,34.3736,1.0,1.0
307,AF0108_V_0001,Arazi,AF0108,69.1075,34.7436,1.0,1.0
308,AF0108_V_0002,Baba Qashqar,AF0108,69.0924,34.7333,1.0,1.0
309,AF0108_V_0004,Balada,AF0108,69.13896353,34.7458114,1.0,1.0
310,AF0108_V_0005,Chela Bagh,AF0108,69.0975,34.7132,1.0,1.0
311,AF0108_V_0006,Dahi Mir,AF0108,69.1274,34.7589,1.0,1.0
312,AF0108_V_0007,Dahi Saqi Bala,AF0108,69.1206,34.7221,1.0,1.0
313,AF0108_V_0009,Daku Bala,AF0108,69.0896,34.7193,1.0,1.0
314,AF0108_V_0010,Daku Sufla,AF0108,69.0999,34.7315,1.0,1.0
315,AF0108_V_0012,Guzar,AF0108,69.1127,34.7106,1.0,1.0
316,AF0108_V_0013,Isiqi Pa'in,AF0108,69.11989,34.74019,1.0,1.0
317,AF0108_V_0016,Kharoti,AF0108,69.0996,34.6847,1.0,1.0
318,AF0108_V_0017,Khowja Geyan,AF0108,69.1216,34.7439,1.0,1.0
319,AF0108_V_0018,Laghmani,AF0108,69.1302,34.7394,1.0,1.0
320,AF0108_V_0019,Lochakan,AF0108,69.1408,34.7379,1.0,1.0
321,AF0108_V_0020,Markaz Wollus Waly,AF0108,69.1002,34.7446,1.0,1.0
322,AF0108_V_0021,Mera Ki Maraki,AF0108,69.1297,34.7507,1.0,1.0
323,AF0108_V_0022,Mewa Khatoon,AF0108,69.1154,34.7144,1.0,1.0
324,AF0108_V_0024,Moushwani Bala,AF0108,69.0993,34.7644,1.0,1.0
325,AF0108_V_0025,Qala Akhand,AF0108,69.12795831,34.76504394,1.0,1.0
326,AF0108_V_0027,Qala Chaq,AF0108,69.1165,34.7678,1.0,1.0
327,AF0108_V_0028,Qala Perak Mirza Khail,AF0108,69.1193,34.7613,1.0,1.0
328,AF0108_V_0029,Qala Pestak,AF0108,69.0998,34.77,1.0,1.0
329,AF0108_V_0030,Qala Sukhto,AF0108,69.09438033,34.71677425,1.0,1.0
330,AF0108_V_0031,Qul,AF0108,69.13081055,34.75997886,1.0,1.0
331,AF0108_V_0032,Rahm Dail Khan,AF0108,69.1069,34.7582,1.0,1.0
332,AF0108_V_0033,Salighan,AF0108,69.12995111,34.76314006,1.0,1.0
333,AF0108_V_0034,Seaw,AF0108,69.1022,34.7032,1.0,1.0
334,AF0108_V_0035,Seyab Charimgar,AF0108,69.0995,34.7062,1.0,1.0
335,AF0108_V_0036,Shaikhan,AF0108,69.1234,34.7307,1.0,1.0
336,AF0108_V_0037,Shaikhan Baqa Baik,AF0108,69.1021,34.6953,1.0,1.0
337,AF0108_V_0038,Sufian,AF0108,69.0996,34.6998,1.0,1.0
338,AF0108_V_0039,Zamin Aghor,AF0108,69.1622,34.7462,1.0,1.0
339,AF0109_V_0001,Abdullah Khail Gorji,AF0109,69.4482,34.3521,1.0,1.0
340,AF0109_V_0002,Baghgi,AF0109,69.3126,34.345,1.0,1.0
341,AF0109_V_0003,Bar Kharote,AF0109,69.33406372,34.378776,1.0,1.0
342,AF0109_V_0006,Chakari,AF0109,69.4372,34.3401,1.0,1.0
343,AF0109_V_0007,Chala Wali Khail,AF0109,69.4541,34.3628,1.0,1.0
344,AF0109_V_0008,Charwazi,AF0109,69.337,34.3275,1.0,1.0
345,AF0109_V_0011,Daowran Khail,AF0109,69.423,34.3961,1.0,1.0
346,AF0109_V_0012,Darband,AF0109,69.3824,34.2782,1.0,1.0
347,AF0109_V_0013,Gazak,AF0109,69.4738,34.5183,1.0,1.0
348,AF0109_V_0014,Ghazgi,AF0109,69.401,34.3142,1.0,1.0
349,AF0109_V_0023,Kharote,AF0109,69.3482,34.3839,1.0,1.0
350,AF0109_V_0024,Khurd Kabul,AF0109,69.3854,34.3844,1.0,1.0
351,AF0109_V_0025,Koz Malang,AF0109,69.393,34.3636,1.0,1.0
352,AF0109_V_0026,Malang Dojan,AF0109,69.447,34.2403,1.0,1.0
353,AF0109_V_0027,Malik Khail,AF0109,69.392,34.3805,1.0,1.0
354,AF0109_V_0029,Mirza Khan,AF0109,69.3424,34.4045,1.0,1.0
355,AF0109_V_0031,Mullah Omar,AF0109,69.5264,34.5145,1.0,1.0
356,AF0109_V_0032,Nazar Qala,AF0109,69.41820189,34.33882441,1.0,1.0
357,AF0109_V_0034,Qala Gul,AF0109,69.4124,34.3669,1.0,1.0
358,AF0109_V_0035,Qala Khudayar,AF0109,69.4221,34.3439,1.0,1.0
359,AF0109_V_0037,Rajan,AF0109,69.44682,34.24031,1.0,1.0
360,AF0109_V_0041,Shairala,AF0109,69.3993,34.2967,1.0,1.0
361,AF0109_V_0043,Shamonzaye,AF0109,69.4096,34.3783,1.0,1.0
362,AF0109_V_0045,Taghar Hulya,AF0109,69.4242,34.3158,1.0,1.0
363,AF0109_V_0047,Talo Khail,AF0109,69.4487,34.3713,1.0,1.0
364,AF0109_V_0048,Wali Khail,AF0109,69.47224163,34.5304319,1.0,1.0
365,AF0109_V_0049,Zendan,AF0109,69.4192,34.3689,1.0,1.0
366,AF0109_V_0051,Sayed Ali Kurona,AF0109,69.4031813109349,34.3841585541494,1.0,1.0
367,AF0110_V_0006,Char Toot,AF0110,69.1966,34.8026,1.0,1.0
368,AF0110_V_0009,Jowi Yar,AF0110,69.22025,34.7028,1.0,1.0
369,AF0110_V_0011,Moushwani Sufla,AF0110,69.1569,34.7655,1.0,1.0
370,AF0110_V_0016,Qarya Bazari,AF0110,69.1674,34.7982,1.0,1.0
371,AF0110_V_0018,Sayid Abad,AF0110,69.121,34.792,1.0,1.0
372,AF0110_V_0019,Sufiyan,AF0110,69.1733,34.7629,1.0,1.0
373,AF0110_V_0021,Zama,AF0110,69.1908,34.726,1.0,1.0
374,AF0111_V_0039,Qala Sufi,AF0111,69.0776,34.729,1.0,1.0
375,AF0112_V_0002,Bostan,AF0112,69.0704,34.7774,1.0,1.0
376,AF0112_V_0003,Dah Now Farza,AF0112,69.0402,34.7872,1.0,1.0
377,AF0112_V_0005,Dahi Rot Qala Musaly,AF0112,69.0693,34.7868,1.0,1.0
378,AF0112_V_0009,Hassan Dara,AF0112,69.0542,34.8047,1.0,1.0
379,AF0112_V_0012,Mata Khail,AF0112,69.061,34.7954,1.0,1.0
380,AF0112_V_0013,Mir Afghan,AF0112,69.0623,34.7988,1.0,1.0
381,AF0112_V_0014,Mirza,AF0112,69.0205,34.7881,1.0,1.0
382,AF0112_V_0016,Payan Dahi,AF0112,69.0572,34.8012,1.0,1.0
383,AF0112_V_0018,Qala Karim,AF0112,69.0349,34.7942,1.0,1.0
384,AF0112_V_0019,Qala Salim Shah,AF0112,69.0106,34.7843,1.0,1.0
385,AF0112_V_0020,Qala Sokhta,AF0112,69.06446864,34.78014834,1.0,1.0
386,AF0112_V_0021,Sallah Khail,AF0112,69.0447,34.7965,1.0,1.0
387,AF0112_V_0022,Sar Khan Khail,AF0112,69.0244,34.7823,1.0,1.0
388,AF0112_V_0024,Zargaran,AF0112,69.0607,34.7853,1.0,1.0
389,AF0113_V_0003,Asiyab Gadi,AF0113,69.1016,34.8367,0.0,1.0
390,AF0113_V_0004,Badal Shah Khail,AF0113,69.0412,34.8439,0.0,1.0
391,AF0113_V_0011,Gar Got,AF0113,69.0337,34.8449,0.0,1.0
392,AF0113_V_0013,Gudera Ayen Posh,AF0113,69.09477958,34.8203243,0.0,1.0
393,AF0113_V_0017,Hesse Awal Dara,AF0113,69.03099165,34.83586279,0.0,1.0
394,AF0113_V_0018,Ismullah,AF0113,69.0886,34.8094,0.0,1.0
395,AF0113_V_0023,Kolalan,AF0113,69.03019459,34.85494034,0.0,1.0
396,AF0113_V_0025,Mahla,AF0113,69.0939,34.8353,0.0,1.0
397,AF0113_V_0028,Mirani Khalifa,AF0113,69.0874,34.8286,0.0,1.0
398,AF0113_V_0030,Nour Kashi,AF0113,69.1013,34.8419,0.0,1.0
399,AF0113_V_0031,Omar Farooq,AF0113,69.08272465,34.83311851,0.0,1.0
400,AF0113_V_0032,Pule Bajil,AF0113,69.04935112,34.82738339,0.0,1.0
401,AF0113_V_0039,Sahdat,AF0113,69.1073,34.8445,0.0,1.0
402,AF0113_V_0040,Samosi,AF0113,69.05679,34.83059,0.0,1.0
403,AF0113_V_0041,Sanglakh,AF0113,69.0941,34.8226,0.0,1.0
404,AF0113_V_0044,Shoraba,AF0113,69.0925,34.846,0.0,1.0
405,AF0113_V_0045,Shoraw,AF0113,69.0924,34.8486,0.0,1.0
406,AF0113_V_0048,Tangi Meyana,AF0113,69.0904,34.8424,0.0,1.0
407,AF0114_V_0005,Bagh Aruq Hulya,AF0114,69.1601,34.809,1.0,1.0
408,AF0114_V_0006,Bagh Aruq Payan,AF0114,69.1625,34.8159,1.0,1.0
409,AF0114_V_0011,Betni,AF0114,69.1655,34.8611,1.0,1.0
410,AF0114_V_0020,Jarche,AF0114,69.1995,34.8779,1.0,1.0
411,AF0114_V_0030,Murda Khail,AF0114,69.1777,34.8603,1.0,1.0
412,AF0114_V_0031,Nahr Kalan,AF0114,69.2098,34.865,1.0,1.0
413,AF0114_V_0033,Paitawa,AF0114,69.2074,34.8798,1.0,1.0
414,AF0114_V_0043,Qala Moussa Bala,AF0114,69.2158,34.8891,1.0,1.0
415,AF0114_V_0052,Qalai Musa Payen,AF0114,69.22277078,34.88378651,1.0,1.0
416,AF0115_V_0004,Ahangaran,AF0115,69.6149,34.3624,1.0,1.0
417,AF0115_V_0012,Arab Khail,AF0115,69.7434,34.5827,1.0,1.0
418,AF0115_V_0014,Asif Khail,AF0115,69.7263,34.5696,1.0,1.0
419,AF0115_V_0016,Babakar Khail,AF0115,69.83478,34.45974,1.0,1.0
420,AF0115_V_0033,Dabeli,AF0115,69.7635,34.4677,1.0,1.0
421,AF0115_V_0034,Dada,AF0115,69.7063804293554,34.6193272292645,1.0,1.0
422,AF0115_V_0036,Dagri Jagdalak,AF0115,69.7446,34.4166,1.0,1.0
423,AF0115_V_0037,Dagu,AF0115,69.72379,34.57655,1.0,1.0
424,AF0115_V_0041,Daowlat Zaye,AF0115,69.6502,34.6125,1.0,1.0
425,AF0115_V_0044,Dari Sari,AF0115,69.7383,34.5683,1.0,1.0
426,AF0115_V_0047,Dope,AF0115,69.7339,34.5807,1.0,1.0
427,AF0115_V_0050,Dre Sar Kalay,AF0115,69.73009,34.5714,1.0,1.0
428,AF0115_V_0051,Dupi Lakan Khail Kharoti,AF0115,69.72936476,34.58029001,1.0,1.0
429,AF0115_V_0054,Faqer Abad,AF0115,69.76501348,34.58789016,1.0,1.0
430,AF0115_V_0065,Ghondi Kalay,AF0115,69.8467,34.7394,1.0,1.0
431,AF0115_V_0070,Haji Niaz Mohammad,AF0115,69.79501449,34.58695456,1.0,1.0
432,AF0115_V_0075,Hod Khail Bala,AF0115,69.7422,34.5886,1.0,1.0
433,AF0115_V_0076,Hod Khail Payen,AF0115,69.7549,34.591,1.0,1.0
434,AF0115_V_0078,Hussain Khail,AF0115,69.727,34.5615,1.0,1.0
435,AF0115_V_0080,Islam Kotgai,AF0115,69.7091,34.5685,1.0,1.0
436,AF0115_V_0084,Jani Ghondi,AF0115,69.7376,34.573,1.0,1.0
437,AF0115_V_0090,Kanj Kely,AF0115,69.74384089,34.56311592,1.0,1.0
438,AF0115_V_0094,Kas Hussain Khail,AF0115,69.71823741,34.54948327,1.0,1.0
439,AF0115_V_0095,Kas Mir Ali Khail,AF0115,69.84441393,34.45646947,1.0,1.0
440,AF0115_V_0109,Kochyano Kalay Sahak,AF0115,69.7232,34.5798,1.0,1.0
441,AF0115_V_0118,Lab e Darya,AF0115,69.74482584,34.58262378,1.0,1.0
442,AF0115_V_0124,Lowi Kalay (1),AF0115,69.71465,34.56393,1.0,1.0
443,AF0115_V_0125,Lowi Kalay (2),AF0115,69.74538,34.60731,1.0,1.0
444,AF0115_V_0135,Meya Sahib kalay,AF0115,69.77291039,34.41217116,1.0,1.0
445,AF0115_V_0138,Mirza Khani,AF0115,69.7243,34.567,1.0,1.0
446,AF0115_V_0140,Molayan,AF0115,69.7146,34.5591,1.0,1.0
447,AF0115_V_0149,Now Abad,AF0115,69.7634,34.5951,1.0,1.0
448,AF0115_V_0150,Oriakhail,AF0115,69.84502722,34.67907947,1.0,1.0
449,AF0115_V_0158,Qalai Elyas Khail,AF0115,69.83824418,34.47766546,1.0,1.0
450,AF0115_V_0163,Sahib Zadagan,AF0115,69.7263,34.6065,1.0,1.0
451,AF0115_V_0164,Salamian,AF0115,69.75984962,34.56425959,1.0,1.0
452,AF0115_V_0165,Salamkhel,AF0115,69.6647,34.4335,1.0,1.0
453,AF0115_V_0169,Sara Chena,AF0115,69.7374,34.4077,1.0,1.0
454,AF0115_V_0175,Shahrak,AF0115,69.74410163,34.5818983,1.0,1.0
455,AF0115_V_0197,Tapa Awal-tapa Bala,AF0115,69.7675,34.5872,1.0,1.0
456,AF0115_V_0198,Tapa Chahar,AF0115,69.7833685,34.58278604,1.0,1.0
457,AF0115_V_0199,Tapa Dowom-tapa Payen,AF0115,69.7779,34.5872,1.0,1.0
458,AF0115_V_0200,Tapa Khan,AF0115,69.7608,34.5887,1.0,1.0
459,AF0115_V_0201,Tapa Sah,AF0115,69.78390587,34.58669132,1.0,1.0
460,AF0115_V_0213,Warkharora,AF0115,69.65622399,34.36420954,1.0,1.0
461,AF0201_V_0002,Akhunda Zada,AF0201,69.3972,34.9976,0.0,1.0
462,AF0201_V_0003,Ali Khail,AF0201,69.3509,35.0132,0.0,1.0
463,AF0201_V_0007,Ashor Khail,AF0201,69.3596,35.0107,0.0,1.0
464,AF0201_V_0008,Atahullah Khail,AF0201,69.3617,35.0046,0.0,1.0
465,AF0201_V_0010,Badamali,AF0201,69.37969,34.9945,0.0,1.0
466,AF0201_V_0011,Bahawdin Khail,AF0201,69.3474198778755,35.0430781938444,0.0,1.0
467,AF0201_V_0012,Bajowri,AF0201,69.3914,35.0643,0.0,1.0
468,AF0201_V_0013,Baloch Khail,AF0201,69.3723,34.9958,0.0,1.0
469,AF0201_V_0014,Chawni,AF0201,69.3884901010737,35.0014060359352,0.0,1.0
470,AF0201_V_0016,Dahi Baba Ali,AF0201,69.3381,35.0454,0.0,1.0
471,AF0201_V_0017,Dahi Babi,AF0201,69.3048,35.0084,0.0,1.0
472,AF0201_V_0018,Dayengak,AF0201,69.4466,34.9398,0.0,1.0
473,AF0201_V_0021,Dehe Resan,AF0201,69.30428,35.03539,0.0,1.0
474,AF0201_V_0024,Ghani Khail,AF0201,69.3670172799137,35.0072506967354,0.0,1.0
475,AF0201_V_0027,Ghundi Ha,AF0201,69.3732262393001,35.0437076625193,0.0,1.0
476,AF0201_V_0028,Halyas Khail,AF0201,69.4228,34.9507,0.0,1.0
477,AF0201_V_0031,Jamchi,AF0201,69.31439,35.0106,0.0,1.0
478,AF0201_V_0032,Kaka Khail,AF0201,69.3396,35.0414,0.0,1.0
479,AF0201_V_0033,Kakari,AF0201,69.3474408608835,35.0470444027114,0.0,1.0
480,AF0201_V_0035,Khanan Khail,AF0201,69.3348,35.0146,0.0,1.0
481,AF0201_V_0042,Mangal,AF0201,69.42508,35.04678,0.0,1.0
482,AF0201_V_0044,Mohammad Omer Khail,AF0201,69.2952,35.0291,0.0,1.0
483,AF0201_V_0046,Mullah Faqir Khail,AF0201,69.3296,35.0327,0.0,1.0
484,AF0201_V_0050,Nizam Khail,AF0201,69.3495,35.0619,0.0,1.0
485,AF0201_V_0051,Nooruddin Khail,AF0201,69.3075154614234,35.0133228192936,0.0,1.0
486,AF0201_V_0052,Pacha Khail Ya Padshah Khail,AF0201,69.3844,35.0583,0.0,1.0
487,AF0201_V_0054,Payenda Khail,AF0201,69.3797,34.9942,0.0,1.0
488,AF0201_V_0055,Qala Afghanhai Rigrawan,AF0201,69.3619919017568,35.0506589461959,0.0,1.0
489,AF0201_V_0056,Qala Cha,AF0201,69.3047,35.0273,0.0,1.0
490,AF0201_V_0058,Qala Safid,AF0201,69.342,35.0383,0.0,1.0
491,AF0201_V_0060,Qala Sayed Khan,AF0201,69.3420377488256,35.0493518697208,0.0,1.0
492,AF0201_V_0063,Qalandar Khail,AF0201,69.3648604911243,35.0272165411441,0.0,1.0
493,AF0201_V_0064,Qazi Khail,AF0201,69.3191,35.0088,0.0,1.0
494,AF0201_V_0065,Qorotak Markazi,AF0201,69.3498296238777,35.0340500847736,0.0,1.0
495,AF0201_V_0066,Qoul Babor,AF0201,69.3703,35.0115,0.0,1.0
496,AF0201_V_0068,Rahmankhel,AF0201,69.34918,35.05029,0.0,1.0
497,AF0201_V_0069,Raig Rawan,AF0201,69.3659,35.0404,0.0,1.0
498,AF0201_V_0071,Rigak Naw Abad,AF0201,69.3941627829064,35.0584605581888,0.0,1.0
499,AF0201_V_0076,Shaikhhai Raig Rawn,AF0201,69.3670553397229,35.0337622145529,0.0,1.0
500,AF0201_V_0080,Wali Khail,AF0201,69.3375,35.0263,0.0,1.0
501,AF0201_V_0083,Qala-e-Dedar,AF0201,69.364308,35.016169,0.0,1.0
502,AF0201_V_0084,Sarwar Khail,AF0201,69.343794,35.018256,0.0,1.0
503,AF0202_V_0007,Dahi Mozafar,AF0202,69.3506,35.0856,0.0,1.0
504,AF0202_V_0009,Dahi Payek,AF0202,69.3447,35.0896,0.0,1.0
505,AF0202_V_0013,Jamal Agha Bala,AF0202,69.2917,35.0774,0.0,1.0
506,AF0202_V_0014,Jamal Agha Hulya Qourban Khail,AF0202,69.2902,35.0691,0.0,1.0
507,AF0202_V_0015,Jamal Agha Payen,AF0202,69.2835,35.0757,0.0,1.0
508,AF0202_V_0019,Karaize,AF0202,69.3733,35.0893,0.0,1.0
509,AF0202_V_0020,Keshektan,AF0202,69.28928,35.04539,0.0,1.0
510,AF0202_V_0023,Kham Roba Hulya,AF0202,69.3381,35.0723,0.0,1.0
511,AF0202_V_0033,Murad Khoja,AF0202,69.30933,35.07089,0.0,1.0
512,AF0202_V_0037,Qala Sahra Dasht,AF0202,69.3232,35.0745,0.0,1.0
513,AF0202_V_0040,Qal'a Sare Ab(Qa'la Saraw),AF0202,69.31989,35.07768,0.0,1.0
514,AF0202_V_0050,Toghak (haji Mirza Mohammad Halam),AF0202,69.3009,35.0798,0.0,1.0
515,AF0203_V_0004,Aram Kot Hulya,AF0203,69.419,35.1176,0.0,1.0
516,AF0203_V_0009,Char Maghz Dara,AF0203,69.4557,35.0328,0.0,1.0
517,AF0203_V_0010,Dozd Dara Ya Zarghonat,AF0203,69.4034,35.1235,0.0,1.0
518,AF0203_V_0014,Jaware Koh Bacha,AF0203,69.3892595387234,35.1196516659987,0.0,1.0
519,AF0203_V_0016,Kham,AF0203,69.44821,35.08725,0.0,1.0
520,AF0203_V_0030,Pahlawan Sange Sarejoi,AF0203,69.4448713188761,35.075159338462,0.0,1.0
521,AF0203_V_0032,Pulemogholan,AF0203,69.3923480543895,35.125085215223,0.0,1.0
522,AF0203_V_0033,Pulemogholan,AF0203,69.363290444104,35.1068527447533,0.0,1.0
523,AF0203_V_0034,Qala Atah Khan,AF0203,69.4026,35.096,0.0,1.0
524,AF0203_V_0036,Qala Mirza Mir,AF0203,69.4155,35.1088,0.0,1.0
525,AF0203_V_0037,Qala Moshraf,AF0203,69.3988,35.1099,0.0,1.0
526,AF0203_V_0040,Sarejoi Mangal Ha,AF0203,69.4429317553883,35.0382888828486,0.0,1.0
527,AF0203_V_0041,Sarejoi Masjd Aziz Murad,AF0203,69.3892682731691,35.1009979964307,0.0,1.0
528,AF0203_V_0042,Sarejoi Qala Sarkari,AF0203,69.4311036341396,35.0854126115019,0.0,1.0
529,AF0203_V_0047,Shena Aka Khail,AF0203,69.4432,35.0935,0.0,1.0
530,AF0203_V_0054,Turbat,AF0203,69.459,35.0825,0.0,1.0
531,AF0204_V_0002,Anwar Khan Khail,AF0204,69.3313,35.1003,0.0,1.0
532,AF0204_V_0010,Dahi Kham Zargar,AF0204,69.3403,35.1139,0.0,1.0
533,AF0204_V_0019,Gulwanan,AF0204,69.3254,35.1075,0.0,1.0
534,AF0204_V_0029,Ka Sawa,AF0204,69.3073,35.1063,0.0,1.0
535,AF0204_V_0032,Karim Khail,AF0204,69.3587,35.1072,0.0,1.0
536,AF0204_V_0033,Khamakari,AF0204,69.2975325813239,35.1377617150799,0.0,1.0
537,AF0204_V_0034,Khowja Khail,AF0204,69.2934,35.1148,0.0,1.0
538,AF0204_V_0039,Maiyana Kocha,AF0204,69.2903,35.1497,0.0,1.0
539,AF0204_V_0043,Mori,AF0204,69.36,35.1098,0.0,1.0
540,AF0204_V_0044,Mullah Khail,AF0204,69.3245,35.0915,0.0,1.0
541,AF0204_V_0051,Penja Kote,AF0204,69.3078,35.1296,0.0,1.0
542,AF0204_V_0062,Qarsidi,AF0204,69.3481,35.10269,0.0,1.0
543,AF0204_V_0082,Toghak,AF0204,69.29808,35.08389,0.0,1.0
544,AF0204_V_0084,Wasi Khail,AF0204,69.3071,35.1452,0.0,1.0
545,AF0205_V_0002,Abdul Khail,AF0205,69.6043,34.9491,1.0,1.0
546,AF0205_V_0023,Badakhshi,AF0205,69.61,35.0244,1.0,1.0
547,AF0205_V_0028,Baqa Khail,AF0205,69.6804,35.0397,1.0,1.0
548,AF0205_V_0029,Barakat Khail,AF0205,69.5992378375311,34.9640261619305,1.0,1.0
549,AF0205_V_0033,Char Qala,AF0205,69.6092559215559,34.946032774267,1.0,1.0
550,AF0205_V_0038,Chenar -E -Sakhi,AF0205,69.5859048640002,34.9682511337353,1.0,1.0
551,AF0205_V_0041,Dahi Qazi,AF0205,69.6243,35.0393,1.0,1.0
552,AF0205_V_0045,Dil Yar,AF0205,69.6094,35.0202,1.0,1.0
553,AF0205_V_0046,Dingak,AF0205,69.5822733511822,34.9641452015176,1.0,1.0
554,AF0205_V_0060,Feroz Zai,AF0205,69.6346,34.9609,1.0,1.0
555,AF0205_V_0070,Ghayen Payen,AF0205,69.6533,34.9653,1.0,1.0
556,AF0205_V_0071,Ghazi Baik Khail,AF0205,69.6192,35.0213,1.0,1.0
557,AF0205_V_0090,Ibrahim Khail,AF0205,69.6079,35.0664,1.0,1.0
558,AF0205_V_0095,Jar Feroz,AF0205,69.612,35.0059,1.0,1.0
559,AF0205_V_0102,Jor Ghal,AF0205,69.6078,34.9965,1.0,1.0
560,AF0205_V_0126,Kormaye,AF0205,69.5868,34.9558,1.0,1.0
561,AF0205_V_0139,Magh Dod Khail,AF0205,69.5882,34.9636,1.0,1.0
562,AF0205_V_0148,Molakhel,AF0205,69.60708,34.95229,1.0,1.0
563,AF0205_V_0158,Paryat,AF0205,69.61281,34.99299,1.0,1.0
564,AF0205_V_0159,Pashaye (1),AF0205,69.62422,35.00441,1.0,1.0
565,AF0205_V_0160,Pashaye (2),AF0205,69.69467,35.01099,1.0,1.0
566,AF0205_V_0162,Qala Abas,AF0205,69.5897964668643,34.9901925413424,1.0,1.0
567,AF0205_V_0166,Qala Samad,AF0205,69.5735974456112,34.9736337411502,1.0,1.0
568,AF0205_V_0183,Shairwani Bala,AF0205,69.5988,35.0132,1.0,1.0
569,AF0205_V_0191,Tajekan,AF0205,69.66548,35.04898,1.0,1.0
570,AF0205_V_0195,Tar Wary,AF0205,69.6313,35.0095,1.0,1.0
571,AF0205_V_0198,Toghak,AF0205,69.5832,34.9895,1.0,1.0
572,AF0205_V_0201,Torkhel,AF0205,69.61128,34.94148,1.0,1.0
573,AF0205_V_0202,Towache Yan,AF0205,69.6111,35.033,1.0,1.0
574,AF0205_V_0203,Walikhankhel,AF0205,69.61899,34.94939,1.0,1.0
575,AF0205_V_0207,Yasin Zai,AF0205,69.5869,34.9767,1.0,1.0
576,AF0205_V_0212,Zar-shoy,AF0205,69.5751,34.9678,1.0,1.0
577,AF0206_V_0004,Ahangaran,AF0206,69.6717992714696,34.8508729650012,1.0,1.0
578,AF0206_V_0005,Aka Khail (1),AF0206,69.66849,34.79516,1.0,1.0
579,AF0206_V_0006,Aka Khail (2),AF0206,69.68738,34.83864,1.0,1.0
580,AF0206_V_0008,Ali Khail,AF0206,69.6318612789459,34.9168229224188,1.0,1.0
581,AF0206_V_0009,Alima Khail,AF0206,69.6352427342501,34.9106763224163,1.0,1.0
582,AF0206_V_0010,Almas Khail,AF0206,69.6897,34.8439,1.0,1.0
583,AF0206_V_0018,Azadkhankhel,AF0206,69.67538,34.82448,1.0,1.0
584,AF0206_V_0024,Balo Khail,AF0206,69.6430277446314,34.8890866261019,1.0,1.0
585,AF0206_V_0039,Ghani Khail,AF0206,69.6652,34.8411,1.0,1.0
586,AF0206_V_0041,Ghazi Khan Khail,AF0206,69.6738,34.7156,1.0,1.0
587,AF0206_V_0052,Jalow Khail,AF0206,69.6407,34.8842,1.0,1.0
588,AF0206_V_0053,Jangalyan,AF0206,69.6509,34.8097,1.0,1.0
589,AF0206_V_0058,Karaiz,AF0206,69.6163,34.9356,1.0,1.0
590,AF0206_V_0065,Khoshal Khail (1),AF0206,69.6582,34.81259,1.0,1.0
591,AF0206_V_0068,Kora,AF0206,69.62098,34.93188,1.0,1.0
592,AF0206_V_0070,Landa Khail Awal,AF0206,69.6239,34.9172,1.0,1.0
593,AF0206_V_0071,Landa Khail Duwum,AF0206,69.6305,34.9137,1.0,1.0
594,AF0206_V_0074,Lowi Shanki,AF0206,69.6845,34.7027,1.0,1.0
595,AF0206_V_0078,Markaz Wolluswaly Tagab,AF0206,69.6469,34.8535,1.0,1.0
596,AF0206_V_0084,Monen Khail,AF0206,69.6385019273455,34.8872868317818,1.0,1.0
597,AF0206_V_0091,Muradi Khail,AF0206,69.6660290162398,34.844797242576,1.0,1.0
598,AF0206_V_0103,Qal`eh-ye Saleh,AF0206,69.63669,34.89178,1.0,1.0
599,AF0206_V_0106,Qala Sallay Ya Akhund Zada Gan,AF0206,69.6367,34.9074,1.0,1.0
600,AF0206_V_0126,Sharif Khail,AF0206,69.6726,34.8852,1.0,1.0
601,AF0206_V_0135,Tagab,AF0206,69.6475,34.85423,1.0,1.0
602,AF0206_V_0136,Tajek,AF0206,69.62978,34.92039,1.0,1.0
603,AF0206_V_0140,Wali Khail,AF0206,69.6644,34.7542,1.0,1.0
604,AF0206_V_0142,Akhunzadagan,AF0206,69.665816,34.750775,1.0,1.0
605,AF0206_V_0143,Kadam Khail,AF0206,69.668211,34.754785,1.0,1.0
606,AF0206_V_0144,Nowroze Khail,AF0206,69.652126,34.805365,1.0,1.0
607,AF0206_V_0145,Ziauddin Khail,AF0206,69.658864,34.807512,1.0,1.0
608,AF0207_V_0002,Ahangaran,AF0207,69.7255308855541,34.9018508497981,1.0,1.0
609,AF0207_V_0003,Akraje,AF0207,69.6988,34.8915,1.0,1.0
610,AF0207_V_0005,Ala Shah Khail,AF0207,69.7304,34.899,1.0,1.0
611,AF0207_V_0012,Bulandi,AF0207,69.7341261375461,34.9012869994659,1.0,1.0
612,AF0207_V_0014,Chamarkank,AF0207,69.7147297291186,34.8871520174988,1.0,1.0
613,AF0207_V_0017,Dar Wali,AF0207,69.7109,34.8926,1.0,1.0
614,AF0207_V_0020,Dawan Khail,AF0207,69.69972,34.88267,1.0,1.0
615,AF0207_V_0029,Jahfar Khail,AF0207,69.7076,34.8961,1.0,1.0
616,AF0207_V_0043,Laka Khail (1),AF0207,69.7021,34.8864,1.0,1.0
617,AF0207_V_0052,Mala Khail,AF0207,69.7096,34.9025,1.0,1.0
618,AF0207_V_0076,Sharo Khail,AF0207,69.7072,34.8775,1.0,1.0
619,AF0207_V_0078,Sultan Khail,AF0207,69.6982,34.8949,1.0,1.0
620,AF0207_V_0079,Sultan Khail Bala,AF0207,69.6972411917558,34.8987582436338,1.0,1.0
621,AF0207_V_0080,Tambal Khail,AF0207,69.6898,34.8953,1.0,1.0
622,AF0207_V_0082,Waisa Khalid,AF0207,69.7208968148241,34.8886969585705,1.0,1.0
623,AF0301_V_0001,Abdibay,AF0301,69.2284,35.0282,0.0,1.0
624,AF0301_V_0002,Akhta Chai,AF0301,69.2228,35.0752,0.0,1.0
625,AF0301_V_0003,Akhtaj,AF0301,69.21015,35.08045,0.0,1.0
626,AF0301_V_0006,Baba Khail,AF0301,69.1893,34.9808,0.0,1.0
627,AF0301_V_0008,Balaghel,AF0301,69.1837,35.0224,0.0,1.0
628,AF0301_V_0009,Balto Khail,AF0301,69.27983,34.99564,0.0,1.0
629,AF0301_V_0010,Bayan Balay,AF0301,69.2048,35.0398,0.0,1.0
630,AF0301_V_0011,Bayan Payen,AF0301,69.2178,35.0053,0.0,1.0
631,AF0301_V_0015,Dahi Aftab Senjed Dara,AF0301,69.1153,34.9448,0.0,1.0
632,AF0301_V_0016,Dahi Chanar,AF0301,69.0694,34.9567,0.0,1.0
633,AF0301_V_0017,Dahi Ghochak,AF0301,69.1248,34.9455,0.0,1.0
634,AF0301_V_0018,Dahi Ghulaman Senjed Dara,AF0301,69.1199,34.9525,0.0,1.0
635,AF0301_V_0019,Dahi Mullah Yusof,AF0301,69.2065,35.0294,0.0,1.0
636,AF0301_V_0021,Dahi Payan Yourchi,AF0301,69.2282,34.9896,0.0,1.0
637,AF0301_V_0022,Dahi Qazi,AF0301,69.233,35.0108,0.0,1.0
638,AF0301_V_0023,Dahi Rayes Senjed Dara,AF0301,69.1227,34.941,0.0,1.0
639,AF0301_V_0024,Dakeri Senjed Dara,AF0301,69.1251,34.9538,0.0,1.0
640,AF0301_V_0025,Dasht Hofiyan,AF0301,69.1948,34.9906,0.0,1.0
641,AF0301_V_0026,Dashte Opyan,AF0301,69.1886,34.9938,0.0,1.0
642,AF0301_V_0029,Dogh Abad,AF0301,69.206,35.0772,0.0,1.0
643,AF0301_V_0030,Dolana,AF0301,69.2106,35.0135,0.0,1.0
644,AF0301_V_0031,Dzarbiha,AF0301,69.19398,35.08989,0.0,1.0
645,AF0301_V_0032,Ghor Band Dara,AF0301,69.0893,34.9547,0.0,1.0
646,AF0301_V_0033,Gul Ghoundi Dahi Zargran,AF0301,69.1508,35.015,0.0,1.0
647,AF0301_V_0035,Habady Bai,AF0301,69.2326,35.0321,0.0,1.0
648,AF0301_V_0036,Hofiyan Sharif,AF0301,69.1579,35.0376,0.0,1.0
649,AF0301_V_0037,Jai Noma,AF0301,69.1311,34.9922,0.0,1.0
650,AF0301_V_0038,Jamshid Khail,AF0301,69.0534,34.9506,0.0,1.0
651,AF0301_V_0040,Jani Kala,AF0301,69.14338,34.91119,0.0,1.0
652,AF0301_V_0041,Kabuli,AF0301,69.1064,34.9191,0.0,1.0
653,AF0301_V_0043,Karaizak (1),AF0301,69.1142,34.9519,0.0,1.0
654,AF0301_V_0046,Khana Dar Ab,AF0301,69.0983,34.9642,0.0,1.0
655,AF0301_V_0047,Khoja Khail,AF0301,69.1427,34.9013,0.0,1.0
656,AF0301_V_0048,Khoja Sayaran Sufla,AF0301,69.1643,34.9843,0.0,1.0
657,AF0301_V_0049,Khoja Sayyaran Hulya,AF0301,69.1381,35.0059,0.0,1.0
658,AF0301_V_0050,Khosh Dara,AF0301,69.0984,34.9513,0.0,1.0
659,AF0301_V_0051,Khwajasabzposhe Wali,AF0301,69.1778,35.0716,0.0,1.0
660,AF0301_V_0053,Kulalan,AF0301,69.1094,34.9389,0.0,1.0
661,AF0301_V_0054,Laghmani,AF0301,69.1641,34.9758,0.0,1.0
662,AF0301_V_0055,Malek Ekram Kala,AF0301,69.12898,34.91139,0.0,1.0
663,AF0301_V_0056,Meyan Shakh,AF0301,69.1945,34.9756,0.0,1.0
664,AF0301_V_0057,Mir'ala,AF0301,69.1654,35.0578,0.0,1.0
665,AF0301_V_0058,Mousa Khail,AF0301,69.1345,34.9273,0.0,1.0
666,AF0301_V_0059,Neyazi,AF0301,69.2283,34.9928,0.0,1.0
667,AF0301_V_0062,Pacha Khail,AF0301,69.28713,34.99217,0.0,1.0
668,AF0301_V_0064,Pashan,AF0301,69.20908,34.97828,0.0,1.0
669,AF0301_V_0065,Qala Hajia Pasheyan,AF0301,69.2012,34.9828,0.0,1.0
670,AF0301_V_0067,Qala Ali Khan Senjed Dara,AF0301,69.1525,34.9395,0.0,1.0
671,AF0301_V_0069,Qala Faqair Shah,AF0301,69.1907,35.029,0.0,1.0
672,AF0301_V_0070,Qala Jangal,AF0301,69.2697,35.0118,0.0,1.0
673,AF0301_V_0072,Qala Kohnna Sofiyan,AF0301,69.1697,34.9689,0.0,1.0
674,AF0301_V_0073,Qala Mirza,AF0301,69.2452,35.0251,0.0,1.0
675,AF0301_V_0075,Qala Mullah,AF0301,69.1766,34.9832,0.0,1.0
676,AF0301_V_0076,Qala Naw,AF0301,69.18658,35.03799,0.0,1.0
677,AF0301_V_0077,Qala Noor Khan,AF0301,69.1296,34.9107,0.0,1.0
678,AF0301_V_0079,Qala Safid Toop Dara,AF0301,69.1254,34.9793,0.0,1.0
679,AF0301_V_0080,Qala Sahra Bazonapayshan,AF0301,69.1943,34.9877,0.0,1.0
680,AF0301_V_0081,Qala Sahra Totom Dara,AF0301,69.1988,35.0713,0.0,1.0
681,AF0301_V_0082,Qala Saifuldain Senjed Dara,AF0301,69.1184,34.9495,0.0,1.0
682,AF0301_V_0083,Qala Sharif,AF0301,69.124,34.9375,0.0,1.0
683,AF0301_V_0084,Qala Zaman,AF0301,69.2141,35.0682,0.0,1.0
684,AF0301_V_0085,Qalacha Shafa,AF0301,69.1869,34.9878,0.0,1.0
685,AF0301_V_0087,Qal'eh Lalamirakhan,AF0301,69.1658,34.9911,0.0,1.0
686,AF0301_V_0088,Qal'eh-ye Khuna,AF0301,69.16818,34.96928,0.0,1.0
687,AF0301_V_0089,Qal'eh-ye Khwajaha,AF0301,69.1704,34.9931,0.0,1.0
688,AF0301_V_0090,Rahasht,AF0301,69.1099,34.9244,0.0,1.0
689,AF0301_V_0091,Sahdullah,AF0301,69.2218,35.0663,0.0,1.0
690,AF0301_V_0094,Sar Asyab,AF0301,69.1369,34.9325,0.0,1.0
691,AF0301_V_0095,Sayr Khail,AF0301,69.2198,34.9908,0.0,1.0
692,AF0301_V_0098,Shabi Khail,AF0301,69.2017,34.9796,0.0,1.0
693,AF0301_V_0099,Shahabudain,AF0301,69.1406,34.9185,0.0,1.0
694,AF0301_V_0100,ShahmoradKhel,AF0301,69.22628,35.07268,0.0,1.0
695,AF0301_V_0101,Shamaq,AF0301,69.1223,34.967,0.0,1.0
696,AF0301_V_0104,Sofiyan Payen,AF0301,69.1781,34.9713,0.0,1.0
697,AF0301_V_0109,Telakhankhel,AF0301,69.20847,35.08705,0.0,1.0
698,AF0301_V_0110,Toop Dara,AF0301,69.1264,34.9838,0.0,1.0
699,AF0301_V_0114,Yurchi,AF0301,69.21418,34.98289,0.0,1.0
700,AF0302_V_0002,Arghan Khail,AF0302,69.2275,34.9705,1.0,1.0
701,AF0302_V_0003,Arotaki (Aroki),AF0302,69.3513,34.9788,1.0,1.0
702,AF0302_V_0004,Awgamati,AF0302,69.39253,34.96605,1.0,1.0
703,AF0302_V_0010,Bahadurkhel,AF0302,69.22138,34.96729,1.0,1.0
704,AF0302_V_0011,Bajowri,AF0302,69.3113,34.9831,1.0,1.0
705,AF0302_V_0012,Bakhshi Ha,AF0302,69.2669,34.9633,1.0,1.0
706,AF0302_V_0014,Barfi Khail,AF0302,69.2397,34.9534,1.0,1.0
707,AF0302_V_0015,Big Mohammad Khail,AF0302,69.2424,34.9852,1.0,1.0
708,AF0302_V_0016,Chaikal,AF0302,69.165,34.94,1.0,1.0
709,AF0302_V_0020,Chobbakhsh,AF0302,69.17529,34.91608,1.0,1.0
710,AF0302_V_0021,Chr Chrak,AF0302,69.2161819408069,34.9066780028849,1.0,1.0
711,AF0302_V_0022,Dahan Maidan,AF0302,69.2452,34.9273,1.0,1.0
712,AF0302_V_0023,Dahen Medan Number 2,AF0302,69.2235769935286,34.931632726088,1.0,1.0
713,AF0302_V_0024,Dahi Hazara,AF0302,69.1893,34.9524,1.0,1.0
714,AF0302_V_0026,Dahi Moosken,AF0302,69.1674,34.9581,1.0,1.0
715,AF0302_V_0027,Dahi Mullah,AF0302,69.2091,34.9526,1.0,1.0
716,AF0302_V_0031,Dasht Rabat,AF0302,69.1739,34.8903,1.0,1.0
717,AF0302_V_0032,Dawlatshahi,AF0302,69.19299,34.96619,1.0,1.0
718,AF0302_V_0033,Dogh Abad,AF0302,69.3935,34.9585,1.0,1.0
719,AF0302_V_0039,Gojar Khail,AF0302,69.2681,34.9761,1.0,1.0
720,AF0302_V_0040,Haji Khan Baba,AF0302,69.2873032531046,34.9734501996953,1.0,1.0
721,AF0302_V_0042,Hamza Khail,AF0302,69.2441,34.9812,1.0,1.0
722,AF0302_V_0043,Hasankhel,AF0302,69.2832,34.9568,1.0,1.0
723,AF0302_V_0045,Jafar Khail,AF0302,69.2565,34.9669,1.0,1.0
724,AF0302_V_0046,Jan Qadam Bala,AF0302,69.2619,34.9567,1.0,1.0
725,AF0302_V_0047,Jan Qadam Payen,AF0302,69.2557,34.9439,1.0,1.0
726,AF0302_V_0051,Khan Baba Khail,AF0302,69.2873,34.9855,1.0,1.0
727,AF0302_V_0052,Khanjar Khail,AF0302,69.2808,34.9807,1.0,1.0
728,AF0302_V_0053,Kharoti (1),AF0302,69.3789,34.87285,1.0,1.0
729,AF0302_V_0057,Laghmani Bala,AF0302,69.2389,34.9341,1.0,1.0
730,AF0302_V_0061,Mahe Ger,AF0302,69.2291,34.9534,1.0,1.0
731,AF0302_V_0062,Mahe Ger Chouni,AF0302,69.2246,34.9508,1.0,1.0
732,AF0302_V_0063,Mahtad Khail (Mahtabkhel),AF0302,69.2453,34.9703,1.0,1.0
733,AF0302_V_0068,Naka Khail,AF0302,69.4163,34.939,1.0,1.0
734,AF0302_V_0069,Nas Dara,AF0302,69.4696,34.8886,1.0,1.0
735,AF0302_V_0071,Nayeb Khail,AF0302,69.2422,34.9621,1.0,1.0
736,AF0302_V_0072,Neyazi (Niyazi Giranshakh),AF0302,69.4285,34.9342,1.0,1.0
737,AF0302_V_0075,Pakistanak,AF0302,69.4262050781599,34.9382275390079,1.0,1.0
738,AF0302_V_0076,Panjqal'a,AF0302,69.2067,34.9155,1.0,1.0
739,AF0302_V_0078,Pire Hadzer,AF0302,69.26079,34.99879,1.0,1.0
740,AF0302_V_0080,Qala Bazaid,AF0302,69.1971,34.9563,1.0,1.0
741,AF0302_V_0082,Qala Boland,AF0302,69.2746,34.9861,1.0,1.0
742,AF0302_V_0083,Qala Che Panjera,AF0302,69.4359967800374,34.9357368598072,1.0,1.0
743,AF0302_V_0085,Qala Goly Dahi Kalan,AF0302,69.2448,34.9239,1.0,1.0
744,AF0302_V_0088,Qala Hazara Ha,AF0302,69.2892,34.965,1.0,1.0
745,AF0302_V_0089,Qala Hazara Sa Dowkan,AF0302,69.3838889462401,34.96277431136,1.0,1.0
746,AF0302_V_0091,Qala Khanaha,AF0302,69.2265,34.9614,1.0,1.0
747,AF0302_V_0092,Qala Khoja Daspichari,AF0302,69.2158,34.9245,1.0,1.0
748,AF0302_V_0095,Qala Kowt Wala,AF0302,69.3216,34.9866,1.0,1.0
749,AF0302_V_0096,Qala Malik,AF0302,69.2037,34.9702,1.0,1.0
750,AF0302_V_0099,Qala Nahsro,AF0302,69.2089,34.9022,1.0,1.0
751,AF0302_V_0100,Qala Now,AF0302,69.2056,34.9561,1.0,1.0
752,AF0302_V_0102,Qalacha Sokhta,AF0302,69.2132,34.9892,1.0,1.0
753,AF0302_V_0103,Qalandar Khail Payen,AF0302,69.2507,34.9874,1.0,1.0
754,AF0302_V_0104,Qalandarkhel (3),AF0302,69.24889,34.99169,1.0,1.0
755,AF0302_V_0108,Qal'eh-ye Mohammad Rafig,AF0302,69.30328,34.97419,1.0,1.0
756,AF0302_V_0113,Qara Baghi Rabat,AF0302,69.1769,34.9082,1.0,1.0
757,AF0302_V_0114,Qara Cha,AF0302,69.317,34.9939,1.0,1.0
758,AF0302_V_0116,Qoul Asyab,AF0302,69.1763,34.9236,1.0,1.0
759,AF0302_V_0117,Qour Ghochi,AF0302,69.369,34.9898,1.0,1.0
760,AF0302_V_0119,Rood Rabat,AF0302,69.1719,34.9217,1.0,1.0
761,AF0302_V_0121,Sahabi Khail,AF0302,69.2955,34.9597,1.0,1.0
762,AF0302_V_0123,Saighani,AF0302,69.3195,34.9725,1.0,1.0
763,AF0302_V_0126,Sayad Ulya,AF0302,69.2895370427843,34.9800847469278,1.0,1.0
764,AF0302_V_0128,Shahi Deh-mola,AF0302,69.20988,34.94868,1.0,1.0
765,AF0302_V_0129,Shahka,AF0302,69.2482,34.9572,1.0,1.0
766,AF0302_V_0131,Shahrak Mahajerin Barekaw,AF0302,69.3798923755595,34.8814176562339,1.0,1.0
767,AF0302_V_0134,Toghchai,AF0302,69.2225,34.98,1.0,1.0
768,AF0302_V_0135,Turkman,AF0302,69.2618,34.9818,1.0,1.0
769,AF0303_V_0002,Ab Khana Ashtor Shahr,AF0303,68.9312,35.0135,0.0,1.0
770,AF0303_V_0004,Abdul Karim Khail,AF0303,69.0493,35.1288,0.0,1.0
771,AF0303_V_0006,Abgerd,AF0303,68.9326,35.0231,0.0,1.0
772,AF0303_V_0008,Ashtor Shahr Afghania,AF0303,68.9516,35.0095,0.0,1.0
773,AF0303_V_0010,Baid Qoul,AF0303,69.1193,35.0754,0.0,1.0
774,AF0303_V_0012,Burj Gul Jan,AF0303,69.0614,35.0483,0.0,1.0
775,AF0303_V_0013,Chanar Dara,AF0303,69.1054,35.0653,0.0,1.0
776,AF0303_V_0016,Chashma Bagh Afghan Bolandi Rasool,AF0303,69.0757,35.0542,0.0,1.0
777,AF0303_V_0020,Dahan Dandor,AF0303,69.0418,35.1045,0.0,1.0
778,AF0303_V_0021,Dahan Namak Ab,AF0303,68.9537,35.023,0.0,1.0
779,AF0303_V_0022,Dahan Shah Toot,AF0303,69.1083,35.0743,0.0,1.0
780,AF0303_V_0023,Dahan Shewa,AF0303,68.9673,35.0265,0.0,1.0
781,AF0303_V_0029,Daraz Gard,AF0303,68.9036,35.0086,0.0,1.0
782,AF0303_V_0030,Darez Khail,AF0303,69.0568,35.148,0.0,1.0
783,AF0303_V_0031,Darrahe Estama,AF0303,69.06039,35.01848,0.0,1.0
784,AF0303_V_0036,Gawond,AF0303,68.9799,34.9877,0.0,1.0
785,AF0303_V_0037,Ghondi Kohshan,AF0303,69.0621,35.0587,0.0,1.0
786,AF0303_V_0038,Hamat Khail,AF0303,69.0455,35.1079,0.0,1.0
787,AF0303_V_0040,Ishturshar,AF0303,68.93383,35.01107,0.0,1.0
788,AF0303_V_0043,Kachkan Payen,AF0303,69.1028,35.0575,0.0,1.0
789,AF0303_V_0044,Kajakane Ulya,AF0303,69.0799,35.0526,0.0,1.0
790,AF0303_V_0047,Kasekcha,AF0303,68.9913,35.0027,0.0,1.0
791,AF0303_V_0048,Kashkan,AF0303,68.9753,34.9986,0.0,1.0
792,AF0303_V_0052,Khak Sangow,AF0303,68.9745,35.0286,0.0,1.0
793,AF0303_V_0057,Khoshkak (1),AF0303,69.08778,35.06415,0.0,1.0
794,AF0303_V_0061,Kolola Sang,AF0303,69.0627,35.1353,0.0,1.0
795,AF0303_V_0064,Malang,AF0303,69.03598,35.16518,0.0,1.0
796,AF0303_V_0065,Mallaye,AF0303,69.0902,35.0725,0.0,1.0
797,AF0303_V_0070,Moussa Khail,AF0303,69.0566,35.1346,0.0,1.0
798,AF0303_V_0081,Qaqshal Markaz Wolluswaly,AF0303,69.01054,35.03465,0.0,1.0
799,AF0303_V_0082,Qeshlaq,AF0303,69.0439,35.1128,0.0,1.0
800,AF0303_V_0083,Rewa Dara Namak Ab,AF0303,68.94576,35.0638,0.0,1.0
801,AF0303_V_0087,Sayid Ali Khail,AF0303,69.1238,35.0845,0.0,1.0
802,AF0303_V_0089,Seya Qala,AF0303,69.0609,35.0676,0.0,1.0
803,AF0303_V_0091,Shairak,AF0303,68.9458,35.0943,0.0,1.0
804,AF0303_V_0092,Shewa,AF0303,68.9795,35.0037,0.0,1.0
805,AF0303_V_0096,Sorkh Gombaz,AF0303,69.0332,35.0464,0.0,1.0
806,AF0303_V_0097,Sorkh Sang,AF0303,68.9881,35.0411,0.0,1.0
807,AF0303_V_0098,Sufi Khail,AF0303,69.0323,35.042,0.0,1.0
808,AF0303_V_0100,Tajeka Ashtor Shahr,AF0303,68.9524,35.0022,0.0,1.0
809,AF0303_V_0102,Talagi,AF0303,69.0663,35.0638,0.0,1.0
810,AF0304_V_0020,Dost Mohammad Khail,AF0304,69.2655,35.0594,0.0,1.0
811,AF0304_V_0024,Hoghor Sang,AF0304,69.2821,35.0194,0.0,1.0
812,AF0304_V_0025,Ibrahim Khail,AF0304,69.2636,35.0491,0.0,1.0
813,AF0304_V_0030,Khodaydad Khail,AF0304,69.2633,35.0927,0.0,1.0
814,AF0304_V_0034,Malik Jan Khail,AF0304,69.2747,35.1063,0.0,1.0
815,AF0304_V_0036,Mullah Shair Jan,AF0304,69.292,35.0025,0.0,1.0
816,AF0304_V_0037,Nahmat Khail,AF0304,69.2741,35.0243,0.0,1.0
817,AF0304_V_0040,Qala Dasht Ancho,AF0304,69.2736,35.0325,0.0,1.0
818,AF0304_V_0047,Zafar Khail,AF0304,69.2678,35.0423,0.0,1.0
819,AF0305_V_0004,Ashrafkhel,AF0305,69.23215,35.07722,0.0,1.0
820,AF0305_V_0006,Baqi Khail,AF0305,69.2644,35.1249,0.0,1.0
821,AF0305_V_0012,Dahi Bala,AF0305,69.2184,35.1241,0.0,1.0
822,AF0305_V_0013,Dahi Bala Gulbahar,AF0305,69.2831,35.1496,0.0,1.0
823,AF0305_V_0018,Do Bandi,AF0305,69.2796,35.1216,0.0,1.0
824,AF0305_V_0019,Eazat Khail Bala,AF0305,69.2269,35.0795,0.0,1.0
825,AF0305_V_0020,Eazat Khail Payen,AF0305,69.2319,35.0774,0.0,1.0
826,AF0305_V_0021,Eissa Khail,AF0305,69.2806,35.1079,0.0,1.0
827,AF0305_V_0023,Fattah Khan Khail,AF0305,69.2786,35.1307,0.0,1.0
828,AF0305_V_0031,Haji Khail,AF0305,69.258,35.1125,0.0,1.0
829,AF0305_V_0040,Khoja Khail Gulbahar,AF0305,69.2714,35.1196,0.0,1.0
830,AF0305_V_0048,Maiyana Gozar Bala,AF0305,69.2271,35.1101,0.0,1.0
831,AF0305_V_0049,Maiyana Gozar Payen,AF0305,69.2178,35.1111,0.0,1.0
832,AF0305_V_0053,Mir Khan Khail,AF0305,69.2711,35.127,0.0,1.0
833,AF0305_V_0055,Munara,AF0305,69.2404,35.0931,0.0,1.0
834,AF0305_V_0059,Poul Matak,AF0305,69.1926,35.0916,0.0,1.0
835,AF0305_V_0065,Qala Sahra,AF0305,69.2132,35.0917,0.0,1.0
836,AF0305_V_0068,Qala Sorkh,AF0305,69.2177,35.0984,0.0,1.0
837,AF0305_V_0069,Qelickhel,AF0305,69.2847,35.1202,0.0,1.0
838,AF0305_V_0079,Shatutak,AF0305,69.2016,35.1187,0.0,1.0
839,AF0305_V_0080,Tajekan,AF0305,69.2292,35.1237,0.0,1.0
840,AF0305_V_0082,Mohammad Salim Khail,AF0305,69.275272,35.138737,0.0,1.0
841,AF0305_V_0083,Qutbudin Khail,AF0305,69.240305,35.12341,0.0,1.0
842,AF0305_V_0084,Safi Khail,AF0305,69.267101,35.12801,0.0,1.0
843,AF0305_V_0085,Surkhak,AF0305,69.272318,35.123707,0.0,1.0
844,AF0306_V_0001,Aghal Khan,AF0306,69.2125,35.2176,0.0,1.0
845,AF0306_V_0015,Bagh Lala,AF0306,69.2187,35.1501,0.0,1.0
846,AF0306_V_0024,Char Kark,AF0306,69.1556,35.3255,0.0,1.0
847,AF0306_V_0027,Dahi Yak,AF0306,69.1896,35.2867,0.0,1.0
848,AF0306_V_0117,Wenar Way Sufla,AF0306,69.2131,35.26,0.0,1.0
849,AF0306_V_0118,Wiwa,AF0306,69.172,35.3024,0.0,1.0
850,AF0307_V_0002,Ajem Khail,AF0307,68.8074,34.94,0.0,1.0
851,AF0307_V_0011,Bala Ghayl,AF0307,68.8805,34.958,0.0,1.0
852,AF0307_V_0012,Bala Qala,AF0307,68.8882,34.9422,0.0,1.0
853,AF0307_V_0020,Chanar,AF0307,68.8284,34.8632,0.0,1.0
854,AF0307_V_0023,Choni,AF0307,68.8294,34.9754,0.0,1.0
855,AF0307_V_0028,Dahana Jowi Dokhtar,AF0307,68.7678,35.0059,0.0,1.0
856,AF0307_V_0029,Dahana Khoshkak,AF0307,68.8762,34.9964,0.0,1.0
857,AF0307_V_0031,Dahi Now,AF0307,68.8585,34.9873,0.0,1.0
858,AF0307_V_0032,Danda,AF0307,68.8792,34.9923,0.0,1.0
859,AF0307_V_0039,Do Abi Ghowr Band,AF0307,68.6373,34.9608,0.0,1.0
860,AF0307_V_0043,Galyan,AF0307,68.7515,34.9935,0.0,1.0
861,AF0307_V_0048,Hajatga,AF0307,68.8605,34.9613,0.0,1.0
862,AF0307_V_0061,Joy-dukhtar,AF0307,68.7795,35.0145,0.0,1.0
863,AF0307_V_0075,Langash Bala Qala,AF0307,68.8508,35.0285,0.0,1.0
864,AF0307_V_0076,Leach,AF0307,68.7433,35.0026,0.0,1.0
865,AF0307_V_0080,Mazana,AF0307,68.62306,34.99256,0.0,1.0
866,AF0307_V_0088,Nangar Hari,AF0307,68.9425,34.8872,0.0,1.0
867,AF0307_V_0096,Qalacha,AF0307,68.8476,34.9945,0.0,1.0
868,AF0307_V_0098,Qalatak Bala,AF0307,68.8151,35.0281,0.0,1.0
869,AF0307_V_0099,Qalatak Payen,AF0307,68.8168,35.0226,0.0,1.0
870,AF0307_V_0100,Qamchaq,AF0307,68.8197,35.0449,0.0,1.0
871,AF0307_V_0102,Qoul Sayyed,AF0307,68.873,34.991,0.0,1.0
872,AF0307_V_0103,Ranga,AF0307,68.807,35.0041,0.0,1.0
873,AF0307_V_0111,Seya Gerd,AF0307,68.856,35.003,0.0,1.0
874,AF0307_V_0113,Seya Kharak,AF0307,68.6643,35.0625,0.0,1.0
875,AF0307_V_0114,Shahi Khail,AF0307,68.8468,34.9483,0.0,1.0
876,AF0307_V_0117,Sorkhi,AF0307,68.8446,34.9838,0.0,1.0
877,AF0308_V_0001,Adain Khail Sardar,AF0308,69.3552,34.808,1.0,1.0
878,AF0308_V_0002,Ahmad Zai,AF0308,69.437,34.8971,1.0,1.0
879,AF0308_V_0003,Ali Khoja,AF0308,69.384,34.8393,1.0,1.0
880,AF0308_V_0004,Ama Chaina,AF0308,69.4512,34.822,1.0,1.0
881,AF0308_V_0005,Angor Dara,AF0308,69.4454,34.7725,1.0,1.0
882,AF0308_V_0006,Baba Ghamgen,AF0308,69.4944,34.7896,1.0,1.0
883,AF0308_V_0007,Bakhte Khail,AF0308,69.5106,34.7828,1.0,1.0
884,AF0308_V_0008,Barmandi Kol,AF0308,69.5216,34.7114,1.0,1.0
885,AF0308_V_0009,Basi Khail,AF0308,69.4135,34.8571,1.0,1.0
886,AF0308_V_0012,Changi,AF0308,69.5488,34.8324,1.0,1.0
887,AF0308_V_0013,Danda Bala,AF0308,69.4626,34.7912,1.0,1.0
888,AF0308_V_0014,Danda Payen,AF0308,69.4753,34.7886,1.0,1.0
889,AF0308_V_0015,Dewana Khail,AF0308,69.372,34.8114,1.0,1.0
890,AF0308_V_0019,Gada Khail,AF0308,69.4169,34.8831,1.0,1.0
891,AF0308_V_0020,Ghafor Khail,AF0308,69.4515,34.8895,1.0,1.0
892,AF0308_V_0021,Hassan Zai,AF0308,69.3583,34.8373,1.0,1.0
893,AF0308_V_0022,Hassan Zai Hulya,AF0308,69.3357,34.8311,1.0,1.0
894,AF0308_V_0023,Islam Kali,AF0308,69.4604,34.7773,1.0,1.0
895,AF0308_V_0024,Ismail Khail,AF0308,69.4765,34.6236,1.0,1.0
896,AF0308_V_0026,Jarghai Payen Sufla,AF0308,69.3995,34.8682,1.0,1.0
897,AF0308_V_0027,Jowr Ghai Hulya,AF0308,69.3432,34.8057,1.0,1.0
898,AF0308_V_0029,Kandowan Bala,AF0308,69.4782,34.7551,1.0,1.0
899,AF0308_V_0031,Karaiz Ge,AF0308,69.3365,34.8444,1.0,1.0
900,AF0308_V_0032,Khak Khor,AF0308,69.4887,34.7317,1.0,1.0
901,AF0308_V_0036,Khowar Mandkol,AF0308,69.5651,34.7,1.0,1.0
902,AF0308_V_0039,Lala Baba,AF0308,69.386,34.7987,1.0,1.0
903,AF0308_V_0040,Landar Khail,AF0308,69.4969,34.643,1.0,1.0
904,AF0308_V_0047,Molamohammad-khel,AF0308,69.39,34.8562,1.0,1.0
905,AF0308_V_0049,Nelay,AF0308,69.5285,34.7872,1.0,1.0
906,AF0308_V_0050,Nohman Khail,AF0308,69.4217,34.8946,1.0,1.0
907,AF0308_V_0051,Noorudain Seya Sang,AF0308,69.4617,34.8217,1.0,1.0
908,AF0308_V_0052,Pacha Khak,AF0308,69.4083,34.7669,1.0,1.0
909,AF0308_V_0054,Qalakhel,AF0308,69.34198,34.79729,1.0,1.0
910,AF0308_V_0056,Sakandara,AF0308,69.4866,34.8441,1.0,1.0
911,AF0308_V_0061,Senjetak,AF0308,69.4232,34.8048,1.0,1.0
912,AF0308_V_0062,Shaighan,AF0308,69.4689,34.7774,1.0,1.0
913,AF0308_V_0063,Shar Ke,AF0308,69.4247,34.7841,1.0,1.0
914,AF0308_V_0068,Spin Caplay,AF0308,69.4601,34.8138,1.0,1.0
915,AF0308_V_0071,Tarily,AF0308,69.4406,34.8145,1.0,1.0
916,AF0309_V_0002,Abdal,AF0309,68.731,34.8715,1.0,1.0
917,AF0309_V_0007,Ashiq,AF0309,68.5666,34.7928,1.0,1.0
918,AF0309_V_0013,Aylaqe Peshqeshlaq,AF0309,68.77917,34.72521,1.0,1.0
919,AF0309_V_0014,Aylaqe Wand,AF0309,68.846,34.7804,1.0,1.0
920,AF0309_V_0015,Azmeem,AF0309,68.6227,34.8171,1.0,1.0
921,AF0309_V_0022,Bangi,AF0309,68.6052,34.8046,1.0,1.0
922,AF0309_V_0025,Belandi,AF0309,68.65781,34.78628,1.0,1.0
923,AF0309_V_0026,Besharak,AF0309,68.60004,34.73379,1.0,1.0
924,AF0309_V_0032,Dahan Aulya,AF0309,68.4613,34.7472,1.0,1.0
925,AF0309_V_0034,Dahan Barek,AF0309,68.6599,34.7985,1.0,1.0
926,AF0309_V_0037,Dahan Karaizak,AF0309,68.5404,34.7773,1.0,1.0
927,AF0309_V_0046,Dahana Ghar,AF0309,68.5132,34.7746,1.0,1.0
928,AF0309_V_0048,Dahana Khak Raiz,AF0309,68.3757,34.7091,1.0,1.0
929,AF0309_V_0054,Dahana Saybak,AF0309,68.6264,34.8233,1.0,1.0
930,AF0309_V_0055,Dahana Tangi,AF0309,68.6496,34.8961,1.0,1.0
931,AF0309_V_0061,Dahane Lokhak,AF0309,68.74411,34.83419,1.0,1.0
932,AF0309_V_0064,Dahane Nayak,AF0309,68.63592,34.84843,1.0,1.0
933,AF0309_V_0077,Deyar,AF0309,68.4839,34.695,1.0,1.0
934,AF0309_V_0080,Diktor,AF0309,68.6793,34.7981,1.0,1.0
935,AF0309_V_0087,Gardi,AF0309,68.7103,34.8192,1.0,1.0
936,AF0309_V_0090,Gonbad,AF0309,68.6596,34.855,1.0,1.0
937,AF0309_V_0092,Hasan,AF0309,68.63423,34.83193,1.0,1.0
938,AF0309_V_0099,Jowa Zak,AF0309,68.4012,34.7197,1.0,1.0
939,AF0309_V_0103,Kalan Baba,AF0309,68.56984,34.78062,1.0,1.0
940,AF0309_V_0106,Karaizak,AF0309,68.547,34.7833,1.0,1.0
941,AF0309_V_0122,Khwaja'ali (1),AF0309,68.4901,34.77,1.0,1.0
942,AF0309_V_0127,Lala,AF0309,68.6098,34.8059,1.0,1.0
943,AF0309_V_0128,Langar,AF0309,68.6484,34.8292,1.0,1.0
944,AF0309_V_0132,Makola,AF0309,68.65157,34.89694,1.0,1.0
945,AF0309_V_0134,Meyta,AF0309,68.6601,34.7785,1.0,1.0
946,AF0309_V_0136,Mohtashem Dahana Yodali,AF0309,68.6313,34.8158,1.0,1.0
947,AF0309_V_0137,Moshi,AF0309,68.6978,34.7564,1.0,1.0
948,AF0309_V_0144,Pai Rokai,AF0309,68.665,34.8344,1.0,1.0
949,AF0309_V_0151,Qafzar,AF0309,68.4295,34.6788,1.0,1.0
950,AF0309_V_0159,Qarghana,AF0309,68.60287,34.79853,1.0,1.0
951,AF0309_V_0165,Qoudi,AF0309,68.4494,34.7459,1.0,1.0
952,AF0309_V_0166,Qoul Barek (1),AF0309,68.7213,34.7102,1.0,1.0
953,AF0309_V_0179,Sar Khak Raiz,AF0309,68.388,34.66,1.0,1.0
954,AF0309_V_0191,Saroke Dahana Abli,AF0309,68.5967,34.7248,1.0,1.0
955,AF0309_V_0192,Sayel Zada,AF0309,68.6368,34.9143,1.0,1.0
956,AF0309_V_0196,Seya Sangak,AF0309,68.6492,34.7575,1.0,1.0
957,AF0309_V_0198,Shahdman Kochak,AF0309,68.5541,34.7668,1.0,1.0
958,AF0309_V_0200,Shebarak,AF0309,68.7879,34.7932,1.0,1.0
959,AF0309_V_0206,Sorkh Parsa Jowi Now,AF0309,68.6457,34.9202,1.0,1.0
960,AF0309_V_0207,Sorkh Qala,AF0309,68.6421,34.9099,1.0,1.0
961,AF0309_V_0212,Tajeki,AF0309,68.6419,34.8248,1.0,1.0
962,AF0309_V_0217,Walang,AF0309,68.7624,34.7266,1.0,1.0
963,AF0310_V_0017,Bani Saywak,AF0310,68.4911,34.9333,1.0,0.0
964,AF0310_V_0030,Dahan Jangalak,AF0310,68.5547,34.9416,1.0,0.0
965,AF0310_V_0031,Dahan Jarf Wa Qamar,AF0310,68.4627,34.9274,1.0,0.0
966,AF0310_V_0033,Dahan Nerkh,AF0310,68.4799,34.9318,1.0,0.0
967,AF0310_V_0050,Dahi Kajak,AF0310,68.3665,34.9185,1.0,0.0
968,AF0310_V_0063,Jangalak,AF0310,68.5463,34.8969,1.0,0.0
969,AF0310_V_0067,Kajak Bala,AF0310,68.3617,34.8944,1.0,0.0
970,AF0310_V_0096,Nawi Sayidan,AF0310,68.4941,34.9383,1.0,0.0
971,AF0401_V_0004,Ahmadzai,AF0401,68.8164,34.4409,1.0,1.0
972,AF0401_V_0005,Akhond Khail,AF0401,68.7859,34.4439,1.0,1.0
973,AF0401_V_0008,Amar Khail,AF0401,68.8417,34.3748,1.0,1.0
974,AF0401_V_0017,Chahar Qala,AF0401,68.8071,34.4328,1.0,1.0
975,AF0401_V_0019,Dahi Afghanan,AF0401,68.8431,34.3838,1.0,1.0
976,AF0401_V_0021,Farooqeyan,AF0401,68.8399,34.3579,1.0,1.0
977,AF0401_V_0026,Hewad Meena,AF0401,68.833405728129,34.3893293620319,1.0,1.0
978,AF0401_V_0032,Khowja Gan,AF0401,68.8179,34.4197,1.0,1.0
979,AF0401_V_0034,Kowt-e Ashrow,AF0401,68.794,34.4472,1.0,1.0
980,AF0401_V_0036,Lewan Noorudin Khail,AF0401,68.8363,34.4608,1.0,1.0
981,AF0401_V_0042,Naser Abad,AF0401,68.8337313644915,34.3867532602928,1.0,1.0
982,AF0401_V_0044,Nawabad Kashmeryan,AF0401,68.8429486989514,34.3376632720686,1.0,1.0
983,AF0401_V_0049,Polad Khan,AF0401,68.8408,34.3903,1.0,1.0
984,AF0401_V_0051,Qala Jabar Kohna Khumar,AF0401,68.8046,34.4979,1.0,1.0
985,AF0401_V_0053,Qala Mashko,AF0401,68.8127,34.411,1.0,1.0
986,AF0401_V_0070,Shahrak Amer Kheal,AF0401,68.8537336959825,34.415417107137,1.0,1.0
987,AF0401_V_0071,Shahrak Eslahate Edary,AF0401,68.8335976237445,34.4051830575513,1.0,1.0
988,AF0401_V_0072,Shahrak Mohammad Dawood Khan,AF0401,68.8334529778111,34.3821428554641,1.0,1.0
989,AF0401_V_0073,Shahr-e-Naw,AF0401,68.8367416999721,34.3484877871225,1.0,1.0
990,AF0401_V_0077,Wahdat Mena,AF0401,68.8348497269788,34.3414598898462,1.0,1.0
991,AF0401_V_0078,Zaman Khail,AF0401,68.8369,34.3388,1.0,1.0
992,AF0402_V_0019,Chen Zai,AF0402,68.7254,34.3147,1.0,1.0
993,AF0402_V_0021,Dadil,AF0402,68.741389,34.364444,1.0,1.0
994,AF0402_V_0024,Dahi Hayat,AF0402,68.769760998,34.368231555,1.0,1.0
995,AF0402_V_0025,Dahi Muslim,AF0402,68.8005,34.3353,1.0,1.0
996,AF0402_V_0028,Darmandeyan,AF0402,68.7057,34.3855,1.0,1.0
997,AF0402_V_0031,Durani,AF0402,68.8472,34.2868,1.0,1.0
998,AF0402_V_0033,Ghondi Kalay,AF0402,68.6774,34.41,1.0,1.0
999,AF0402_V_0053,Khaisrow,AF0402,68.7324,34.3656,1.0,1.0
1000,AF0402_V_0056,Khan Jan Khail (1),AF0402,68.73593,34.35504,1.0,1.0
1001,AF0402_V_0073,Mar Khana,AF0402,68.7633,34.3408,1.0,1.0
1002,AF0402_V_0087,Omar Khail,AF0402,68.7294086742635,34.3681745583148,1.0,1.0
1003,AF0402_V_0099,Qala Jalal Khail,AF0402,68.6964,34.33,1.0,1.0
1004,AF0402_V_0125,Sad Murda,AF0402,68.6041042537562,34.3601197562715,1.0,1.0
1005,AF0402_V_0134,Sarferazkhel,AF0402,68.7165,34.3329,1.0,1.0
1006,AF0402_V_0143,Shohabudin,AF0402,68.8661,34.3129,1.0,1.0
1007,AF0402_V_0144,Shukor Khail,AF0402,68.7319121244667,34.3400904558009,1.0,1.0
1008,AF0402_V_0147,Sur Pul,AF0402,68.846,34.3227,1.0,1.0
1009,AF0402_V_0153,To Karak,AF0402,68.7038,34.3067,1.0,1.0
1010,AF0403_V_0001,Ahangaran,AF0403,68.6365,34.5055,1.0,1.0
1011,AF0403_V_0020,Dahan Armon Sanglakh,AF0403,68.7005,34.5858,1.0,1.0
1012,AF0403_V_0021,Dahan Dara Bagh,AF0403,68.5226,34.4366,1.0,1.0
1013,AF0403_V_0036,Dewlan,AF0403,68.6008,34.4788,1.0,1.0
1014,AF0403_V_0041,Gardana,AF0403,68.6415,34.522,1.0,1.0
1015,AF0403_V_0048,Ishmailkheyl,AF0403,68.7136,34.4611,1.0,1.0
1016,AF0403_V_0050,Jalrez,AF0403,68.643812149,34.472394552,1.0,1.0
1017,AF0403_V_0051,Kalacha,AF0403,68.6446,34.458,1.0,1.0
1018,AF0403_V_0056,Kharote,AF0403,68.6536,34.4529,1.0,1.0
1019,AF0403_V_0057,Kharote Hulya,AF0403,68.6364,34.4859,1.0,1.0
1020,AF0403_V_0059,Khoshkak Kerman,AF0403,68.6827,34.5633,1.0,1.0
1021,AF0403_V_0069,Mamaki Qala Mohamad Yar,AF0403,68.7295794310788,34.4553807626737,1.0,1.0
1022,AF0403_V_0085,Qala Aslam,AF0403,68.5116,34.4283,1.0,1.0
1023,AF0403_V_0097,Qala Shah,AF0403,68.6644,34.5307,1.0,1.0
1024,AF0403_V_0098,Qala Sorkh Bala,AF0403,68.6892,34.5761,1.0,1.0
1025,AF0403_V_0103,Qawom Malik Khan Mohammad,AF0403,68.6005,34.4462,1.0,1.0
1026,AF0403_V_0112,Qoul Hassan,AF0403,68.4156,34.4448,1.0,1.0
1027,AF0403_V_0138,Seya Khak,AF0403,68.4812,34.4286,1.0,1.0
1028,AF0403_V_0139,Seya Paitow,AF0403,68.6045,34.4578,1.0,1.0
1029,AF0403_V_0147,Tankalech (1),AF0403,68.5608,34.4453,1.0,1.0
1030,AF0403_V_0152,Toghri,AF0403,68.544,34.4366,1.0,1.0
1031,AF0403_V_0160,Zaywalayat,AF0403,68.72599,34.45298,1.0,1.0
1032,AF0404_V_0001,Ablaq Qala,AF0404,68.5031,34.1709,1.0,1.0
1033,AF0404_V_0002,Adam Khail,AF0404,68.5262,34.0713,1.0,1.0
1034,AF0404_V_0006,Ali Ahmad,AF0404,68.6185,34.1208,1.0,1.0
1035,AF0404_V_0009,Ali Khani,AF0404,68.6808,34.1469,1.0,1.0
1036,AF0404_V_0010,Ali Shah,AF0404,68.6907,34.2007,1.0,1.0
1037,AF0404_V_0014,Ambo Khak,AF0404,68.7325,34.1433,1.0,1.0
1038,AF0404_V_0029,Bairana,AF0404,68.5082,34.1147,1.0,1.0
1039,AF0404_V_0031,Bambay(Khawat),AF0404,68.61848,34.12109,1.0,1.0
1040,AF0404_V_0053,Dewalak,AF0404,68.4071,34.1237,1.0,1.0
1041,AF0404_V_0059,Fatah Khail,AF0404,68.4939,34.1367,1.0,1.0
1042,AF0404_V_0064,Ghulam Qala,AF0404,68.4271,34.138,1.0,1.0
1043,AF0404_V_0065,Ginegar,AF0404,68.4784,34.0667,1.0,1.0
1044,AF0404_V_0067,Goda,AF0404,68.4922,34.2144,1.0,1.0
1045,AF0404_V_0119,Manjar Khail,AF0404,68.3518,34.0278,1.0,1.0
1046,AF0404_V_0141,Noora Khail,AF0404,68.65927,34.13441,1.0,1.0
1047,AF0404_V_0162,Salgari,AF0404,68.4888,34.007,1.0,1.0
1048,AF0404_V_0173,Saybak,AF0404,68.5363,34.0495,1.0,1.0
1049,AF0404_V_0214,Zolfiqar Ratahl (Zulfeqarkhel),AF0404,68.498,34.156,1.0,1.0
1050,AF0405_V_0001,Ab Dara,AF0405,68.7387,33.8566,1.0,1.0
1051,AF0405_V_0011,Aman Khail,AF0405,68.7057,33.998,1.0,1.0
1052,AF0405_V_0038,Bolandi,AF0405,68.713,34.006,1.0,1.0
1053,AF0405_V_0042,Char Maghz,AF0405,68.6043,33.967,1.0,1.0
1054,AF0405_V_0057,Gadaykhel,AF0405,68.7312,33.8501,1.0,1.0
1055,AF0405_V_0065,Haft Asiyab,AF0405,68.6085,33.8423,1.0,1.0
1056,AF0405_V_0067,Hakim Khail (1),AF0405,68.61034,33.82997,1.0,1.0
1057,AF0405_V_0068,Hakim Khail (2),AF0405,68.66814,34.01289,1.0,1.0
1058,AF0405_V_0071,Hasankhel (2),AF0405,68.7702,34.0169,1.0,1.0
1059,AF0405_V_0072,Hashim Khail,AF0405,68.7541,34.08496,1.0,1.0
1060,AF0405_V_0073,Hassan Baig,AF0405,68.6139,34.0213,1.0,1.0
1061,AF0405_V_0074,Hossay Khail,AF0405,68.5781,33.9777,1.0,1.0
1062,AF0405_V_0078,Jowi Zarin,AF0405,68.7846,34.0221,1.0,1.0
1063,AF0405_V_0094,Kharyan,AF0405,68.7319,34.1208,1.0,1.0
1064,AF0405_V_0112,Lora Khail,AF0405,68.5678,33.7739,1.0,1.0
1065,AF0405_V_0113,Mahro,AF0405,68.5069,33.8405,1.0,1.0
1066,AF0405_V_0125,Mossa Khail,AF0405,68.6268,33.9881,1.0,1.0
1067,AF0405_V_0137,Qala Amir,AF0405,68.8307,33.9914,1.0,1.0
1068,AF0405_V_0143,Sallar,AF0405,68.6683,33.9044,1.0,1.0
1069,AF0405_V_0150,Sesai,AF0405,68.74028,34.04278,1.0,1.0
1070,AF0405_V_0161,Shash Qala,AF0405,68.543611,33.738055,1.0,1.0
1071,AF0405_V_0169,Sultan Khail,AF0405,68.6309,33.8801,1.0,1.0
1072,AF0406_V_0007,Babag,AF0406,68.3801,34.2384,1.0,1.0
1073,AF0406_V_0013,Bakhshak,AF0406,68.2804,34.1919,1.0,1.0
1074,AF0406_V_0027,Char Dewar,AF0406,68.2044,34.0627,1.0,1.0
1075,AF0406_V_0031,Dalan,AF0406,68.3604,34.22,1.0,1.0
1076,AF0406_V_0054,Jawqul (1),AF0406,68.3011,34.4049,1.0,1.0
1077,AF0406_V_0058,Kareze Folad,AF0406,68.27059,34.34029,1.0,1.0
1078,AF0406_V_0065,Kolagh,AF0406,68.4175,34.2328,1.0,1.0
1079,AF0406_V_0073,Lalandar,AF0406,68.2538,34.1703,1.0,1.0
1080,AF0406_V_0080,Naqchin,AF0406,68.30348,34.29179,1.0,1.0
1081,AF0406_V_0082,Nawa Jowi,AF0406,68.1961,33.9723,1.0,1.0
1082,AF0406_V_0107,Sado Khail,AF0406,68.4544,34.2262,1.0,1.0
1083,AF0406_V_0109,Safid Dewar,AF0406,68.2389,34.1291,1.0,1.0
1084,AF0406_V_0111,Safid Qada,AF0406,68.3403,34.3408,1.0,1.0
1085,AF0406_V_0123,Shahil Khail,AF0406,68.5467,34.2973,1.0,1.0
1086,AF0407_V_0005,Ahangaran,AF0407,68.2355,34.5194,1.0,1.0
1087,AF0407_V_0049,Boum Ab Dara,AF0407,68.0824,34.4449,1.0,1.0
1088,AF0407_V_0064,Dahan Ab Sayid,AF0407,68.1567,34.5018,1.0,1.0
1089,AF0407_V_0071,Dahan Hessar,AF0407,68.34,34.6916,1.0,1.0
1090,AF0407_V_0074,Dahan Lakhshan,AF0407,68.263,34.661,1.0,1.0
1091,AF0407_V_0083,Dahan Tanor,AF0407,68.1732,34.4974,1.0,1.0
1092,AF0407_V_0086,Dahane Bughrestan,AF0407,68.3185,34.68654,1.0,1.0
1093,AF0407_V_0101,Dasht Khalaiq,AF0407,68.1472,34.3269,1.0,1.0
1094,AF0407_V_0118,Eair Gin,AF0407,68.2449,34.7062,1.0,1.0
1095,AF0407_V_0142,Janam,AF0407,68.1668,34.5803,1.0,1.0
1096,AF0407_V_0159,Khan Mohammad,AF0407,68.2044,34.6953,1.0,1.0
1097,AF0407_V_0175,Langar,AF0407,68.2214,34.5036,1.0,1.0
1098,AF0407_V_0201,Painj Asaiyab,AF0407,68.0596,34.4912,1.0,1.0
1099,AF0407_V_0237,Qala Sayyed,AF0407,68.34549,34.47644,1.0,1.0
1100,AF0407_V_0280,Sabz Darakht,AF0407,68.0973,34.5063,1.0,1.0
1101,AF0407_V_0301,Shahr Nerow,AF0407,68.167,34.3883,1.0,1.0
1102,AF0407_V_0312,Shamd,AF0407,68.1018,34.5041,1.0,1.0
1103,AF0407_V_0314,Sheena Qoul Khesh,AF0407,68.23,34.6916,1.0,1.0
1104,AF0407_V_0331,Talseen,AF0407,68.1809,34.4171,1.0,1.0
1105,AF0407_V_0338,Tobagah (1),AF0407,68.1364,34.4947,1.0,1.0
1106,AF0407_V_0341,Toubak,AF0407,68.1217,34.3766,1.0,1.0
1107,AF0408_V_0001,Abdulrahim Baba Khail,AF0408,68.438,33.9085,1.0,1.0
1108,AF0408_V_0002,Abtala,AF0408,68.313142171807,33.7485972178268,1.0,1.0
1109,AF0408_V_0003,Adina Hulya,AF0408,68.304,33.7406,1.0,1.0
1110,AF0408_V_0009,Akhtoom,AF0408,68.2824,33.7985,1.0,1.0
1111,AF0408_V_0012,Aryab Kalan,AF0408,68.4457,33.854,1.0,1.0
1112,AF0408_V_0014,Aslam Khail,AF0408,68.2872,33.7265,1.0,1.0
1113,AF0408_V_0017,Babur Khail,AF0408,68.2668,33.8041,1.0,1.0
1114,AF0408_V_0018,Baid Moshak,AF0408,68.3794,33.7267,1.0,1.0
1115,AF0408_V_0022,Bocha Khail Salih Khail,AF0408,68.3344,33.7477,1.0,1.0
1116,AF0408_V_0031,Chawar Che,AF0408,68.2896987959171,33.7148492798684,1.0,1.0
1117,AF0408_V_0034,Choka,AF0408,68.2887,33.7119,1.0,1.0
1118,AF0408_V_0035,Dahana,AF0408,68.3526,33.8526,1.0,1.0
1119,AF0408_V_0037,Delawar Khail Pyadara,AF0408,68.3064,33.7215,1.0,1.0
1120,AF0408_V_0040,Doulna,AF0408,68.4463,33.7699,1.0,1.0
1121,AF0408_V_0044,Ghashi,AF0408,68.4493,33.9294,1.0,1.0
1122,AF0408_V_0045,Ghooz Bha,AF0408,68.2723,33.7774,1.0,1.0
1123,AF0408_V_0049,Hamza,AF0408,68.2779,33.6919,1.0,1.0
1124,AF0408_V_0050,Hamzal Baba Khail,AF0408,68.4352,33.8918,1.0,1.0
1125,AF0408_V_0060,Kalan Dahi Bala,AF0408,68.411,33.8459,1.0,1.0
1126,AF0408_V_0061,Kamal Baba Khail,AF0408,68.3762,33.7859,1.0,1.0
1127,AF0408_V_0066,Khowja Ab,AF0408,68.4019,33.7337,1.0,1.0
1128,AF0408_V_0070,Kulbugul,AF0408,68.27708,33.72849,1.0,1.0
1129,AF0408_V_0081,Mangali,AF0408,68.2975,33.7383,1.0,1.0
1130,AF0408_V_0086,Messry Khail,AF0408,68.3693,33.7752,1.0,1.0
1131,AF0408_V_0088,Mirza-beg,AF0408,68.3102,33.7454,1.0,1.0
1132,AF0408_V_0091,Mola Watak,AF0408,68.424,33.926,1.0,1.0
1133,AF0408_V_0098,Noory Khail,AF0408,68.2906,33.7275,1.0,1.0
1134,AF0408_V_0113,Sabz Sang,AF0408,68.3691,33.9093,1.0,1.0
1135,AF0408_V_0115,Sahadat Khail,AF0408,68.3757,33.8039,1.0,1.0
1136,AF0408_V_0122,Seya Qoul,AF0408,68.356,33.7215,1.0,1.0
1137,AF0408_V_0124,Shaikh Ali,AF0408,68.2993,33.8027,1.0,1.0
1138,AF0408_V_0134,Zarin,AF0408,68.2921,33.7501,1.0,1.0
1139,AF0409_V_0039,Baa Yazed,AF0409,67.5140386505759,34.3790965906512,1.0,1.0
1140,AF0409_V_0040,Baba Ka,AF0409,67.6148148887003,34.5440819404826,1.0,1.0
1141,AF0409_V_0042,Badar Ka,AF0409,67.8275,34.3217,1.0,1.0
1142,AF0409_V_0069,Baraike,AF0409,67.7386,34.2532,1.0,1.0
1143,AF0409_V_0104,Charbala,AF0409,67.7777,34.3864,1.0,1.0
1144,AF0409_V_0121,Dahan Bom,AF0409,68.0141,34.2574,1.0,1.0
1145,AF0409_V_0135,Dahan Ra Qoul,AF0409,67.7567,34.3285,1.0,1.0
1146,AF0409_V_0141,Dahan Shahbaz,AF0409,67.8937,34.3793,1.0,1.0
1147,AF0409_V_0161,Dara,AF0409,67.3827,34.5978,1.0,1.0
1148,AF0409_V_0177,Dashtak Tajekan,AF0409,67.8069,34.522,1.0,1.0
1149,AF0409_V_0184,Dewalak (1),AF0409,67.54752,34.42219,1.0,1.0
1150,AF0409_V_0256,Ghawas,AF0409,67.4545,34.5206,1.0,1.0
1151,AF0409_V_0322,Karaiz (1),AF0409,67.47145,34.24985,1.0,1.0
1152,AF0409_V_0343,Khak Raizak Wa Tarka,AF0409,67.8033,34.5392,1.0,1.0
1153,AF0409_V_0398,Maghak,AF0409,67.808,34.4369,1.0,1.0
1154,AF0409_V_0466,Noorak (1),AF0409,67.45075,34.51194,1.0,1.0
1155,AF0409_V_0523,Pul Afghanan,AF0409,67.9025,34.4344,1.0,1.0
1156,AF0409_V_0561,Qal'a-i-Khan,AF0409,67.95362,34.29923,1.0,1.0
1157,AF0409_V_0642,Sabza,AF0409,67.3485,34.468,1.0,1.0
1158,AF0409_V_0664,Sang Shanda,AF0409,67.7356,34.2453,1.0,1.0
1159,AF0409_V_0715,Sarail,AF0409,67.8314,34.5802,1.0,1.0
1160,AF0409_V_0758,Seya Sangak (1),AF0409,67.83207,34.4458,1.0,1.0
1161,AF0409_V_0765,Shahr Jalil,AF0409,67.6725,34.524,1.0,1.0
1162,AF0409_V_0805,Siah Buteh,AF0409,67.9896,34.4722,1.0,1.0
1163,AF0409_V_0816,Sorkh Abad,AF0409,67.611050509331,34.3209374205809,1.0,1.0
1164,AF0501_V_0006,Ahmad Baik,AF0501,69.0254,34.0462,1.0,1.0
1165,AF0501_V_0022,Babus (1),AF0501,68.9783,34.0765,1.0,1.0
1166,AF0501_V_0025,Bagi,AF0501,69.0395,34.002,1.0,1.0
1167,AF0501_V_0035,Bazar Khader,AF0501,69.042,33.9544,1.0,1.0
1168,AF0501_V_0037,Bocha Ya Khairullah,AF0501,69.0112,34.0605,1.0,1.0
1169,AF0501_V_0043,Dado Khail,AF0501,69.0869,34.0886,1.0,1.0
1170,AF0501_V_0048,Darwaish,AF0501,69.0431,33.9688,1.0,1.0
1171,AF0501_V_0063,Haroon Khail,AF0501,69.0669,34.09,1.0,1.0
1172,AF0501_V_0068,Hesarak,AF0501,69.0318,33.9945,1.0,1.0
1173,AF0501_V_0074,Jelga,AF0501,69.0329,34.0516,1.0,1.0
1174,AF0501_V_0077,Kamal Khail,AF0501,69.0473,34.0736,1.0,1.0
1175,AF0501_V_0087,Khowja Akbar,AF0501,69.0395,34.0792,1.0,1.0
1176,AF0501_V_0108,Masjid Baba,AF0501,69.07212175,34.01529922,1.0,1.0
1177,AF0501_V_0119,Mullah Hassan,AF0501,69.0269,34.0502,1.0,1.0
1178,AF0501_V_0124,Musa Kala,AF0501,69.0303,33.9753,1.0,1.0
1179,AF0501_V_0127,Nasar,AF0501,69.0441,34.06879,1.0,1.0
1180,AF0501_V_0128,Nasira,AF0501,69.007554,34.018088,1.0,1.0
1181,AF0501_V_0134,Neyazi,AF0501,69.048,34.0873,1.0,1.0
1182,AF0501_V_0135,Noorullah,AF0501,69.0197,33.9714,1.0,1.0
1183,AF0501_V_0152,Porak,AF0501,69.0579,34.087,1.0,1.0
1184,AF0501_V_0155,Qala Ghafar,AF0501,68.9901,34.0448,1.0,1.0
1185,AF0501_V_0159,Qala Juma,AF0501,69.0304,34.071,1.0,1.0
1186,AF0501_V_0161,Qala Mami,AF0501,68.9979,33.9606,1.0,1.0
1187,AF0501_V_0172,Qala Shakar,AF0501,69.0401,34.0116,1.0,1.0
1188,AF0501_V_0175,Qalay Tahir,AF0501,69.0096,34.0574,1.0,1.0
1189,AF0501_V_0179,Qal'eh-ye Jelga,AF0501,69.0347,34.0562,1.0,1.0
1190,AF0501_V_0181,Qarya Kaje,AF0501,69.0312,34.0558,1.0,1.0
1191,AF0501_V_0182,Qarya Kulangar,AF0501,69.0141,34.036,1.0,1.0
1192,AF0501_V_0193,Sar Sang (1),AF0501,68.99455,33.96739,1.0,1.0
1193,AF0501_V_0210,Shairak,AF0501,69.044,34.0193,1.0,1.0
1194,AF0501_V_0215,Shash Qala,AF0501,69.0188,34.0216,1.0,1.0
1195,AF0501_V_0217,Shelak,AF0501,68.8869,34.1081,1.0,1.0
1196,AF0501_V_0218,Sora yak,AF0501,69.05012695,33.95705057,1.0,1.0
1197,AF0501_V_0225,Tator-o Paykhel,AF0501,69.02237,34.00468,1.0,1.0
1198,AF0501_V_0229,Woni Sufla,AF0501,69.0108,34.0153,1.0,1.0
1199,AF0502_V_0001,Afghankan,AF0502,68.9309,33.9167,1.0,1.0
1200,AF0502_V_0002,Alef Khan (1),AF0502,68.83786,33.9412,1.0,1.0
1201,AF0502_V_0004,Allah Dad Khail,AF0502,68.9444,33.8765,1.0,1.0
1202,AF0502_V_0007,Baboke,AF0502,68.916,33.9458,1.0,1.0
1203,AF0502_V_0009,Baby,AF0502,68.9724,33.9408,1.0,1.0
1204,AF0502_V_0010,Badi,AF0502,68.975,33.9668,1.0,1.0
1205,AF0502_V_0014,Baraki Rajan,AF0502,68.9402,33.9623,1.0,1.0
1206,AF0502_V_0016,Chalozai Ya Bazi Khail,AF0502,68.874,33.9592,1.0,1.0
1207,AF0502_V_0018,Char Qala,AF0502,68.9643,33.9317,1.0,1.0
1208,AF0502_V_0019,Chehl Tan,AF0502,68.88,33.9368,1.0,1.0
1209,AF0502_V_0020,Dahi Shaikh,AF0502,68.9255,33.9635,1.0,1.0
1210,AF0502_V_0021,Dahi Yahya,AF0502,68.9589,33.9665,1.0,1.0
1211,AF0502_V_0028,Ebrahihimkhel,AF0502,68.8694,33.9745,1.0,1.0
1212,AF0502_V_0029,Eido Khail,AF0502,68.9373,33.8847,1.0,1.0
1213,AF0502_V_0033,Gul Mohammad Khan Sarayak,AF0502,68.9285,33.9432,1.0,1.0
1214,AF0502_V_0035,Hawas Khail,AF0502,68.8771,33.9507,1.0,1.0
1215,AF0502_V_0037,Jabar,AF0502,68.9834,33.9319,1.0,1.0
1216,AF0502_V_0038,Jadran (1),AF0502,68.9201,33.915,1.0,1.0
1217,AF0502_V_0040,Jogi,AF0502,68.8922,33.95499,1.0,1.0
1218,AF0502_V_0045,Khosha Chee,AF0502,68.9715,33.9461,1.0,1.0
1219,AF0502_V_0050,Kulala Kalal,AF0502,68.9665,33.9366,1.0,1.0
1220,AF0502_V_0051,Lahlak,AF0502,68.8718,33.9563,1.0,1.0
1221,AF0502_V_0052,Lowi Kalay Chalozai,AF0502,68.8651,33.9676,1.0,1.0
1222,AF0502_V_0058,Mohmand,AF0502,68.8802,33.9653,1.0,1.0
1223,AF0502_V_0062,Mullah Khail,AF0502,68.8985,33.932,1.0,1.0
1224,AF0502_V_0068,Now Abad Akhound Khail,AF0502,68.9631,33.8957,1.0,1.0
1225,AF0502_V_0074,Padkhab Roghani Bala Dah,AF0502,68.9612,33.944,1.0,1.0
1226,AF0502_V_0075,Padkhowab Roghani Qala Zargar,AF0502,68.95917,33.93501,1.0,1.0
1227,AF0502_V_0076,Padkhwabe Roghani,AF0502,68.9753,33.9473,1.0,1.0
1228,AF0502_V_0078,Pandi Pa'in,AF0502,68.9043,33.923,1.0,1.0
1229,AF0502_V_0082,Pendi Bala Qala Dasht,AF0502,68.8962,33.9175,1.0,1.0
1230,AF0502_V_0083,Pendi Payen,AF0502,68.9012,33.9213,1.0,1.0
1231,AF0502_V_0086,Qala Abadullah,AF0502,68.9344,33.9019,1.0,1.0
1232,AF0502_V_0087,Qala Abass,AF0502,68.857,33.9461,1.0,1.0
1233,AF0502_V_0089,Qala Balay Nahyeb Khail Aminullah,AF0502,68.9225,33.9292,1.0,1.0
1234,AF0502_V_0090,Qala Faqir,AF0502,68.941,33.9436,1.0,1.0
1235,AF0502_V_0092,Qala Hayat,AF0502,68.9495,33.9232,1.0,1.0
1236,AF0502_V_0093,Qala Malik,AF0502,68.9337,33.9283,1.0,1.0
1237,AF0502_V_0094,Qala Maqsoud,AF0502,68.8947,33.9338,1.0,1.0
1238,AF0502_V_0098,Qala Nazir Baba,AF0502,68.9268,33.8797,1.0,1.0
1239,AF0502_V_0099,Qala Noor (1),AF0502,68.98454,33.93571,1.0,1.0
1240,AF0502_V_0102,Qala Noorullah Khan,AF0502,68.9659,33.959,1.0,1.0
1241,AF0502_V_0104,Qala Panj Pai,AF0502,68.8942,33.9387,1.0,1.0
1242,AF0502_V_0106,Qala Shah Ghase,AF0502,68.9094,33.9484,1.0,1.0
1243,AF0502_V_0107,Qala Shaki,AF0502,68.9466,33.9302,1.0,1.0
1244,AF0502_V_0109,Qala Wardak,AF0502,68.9638,33.9677,1.0,1.0
1245,AF0502_V_0111,Qala-e- faiz,AF0502,68.92505912,33.95284306,1.0,1.0
1246,AF0502_V_0114,Qarya Ahmadak,AF0502,68.8936,33.9463,1.0,1.0
1247,AF0502_V_0117,Qarya Khairullah,AF0502,68.9097,33.9349,1.0,1.0
1248,AF0502_V_0120,Qarya Taqi,AF0502,68.9713,33.9673,1.0,1.0
1249,AF0502_V_0121,Qarya Yousuf,AF0502,68.9583,33.8888,1.0,1.0
1250,AF0502_V_0126,Rustam Khail,AF0502,68.9654,33.9191,1.0,1.0
1251,AF0502_V_0137,Sejawand,AF0502,68.8018,33.9022,1.0,1.0
1252,AF0502_V_0139,Shah Mazar Mowlana Sahib Abdulwahid,AF0502,68.9435,33.8889,1.0,1.0
1253,AF0502_V_0142,Shaikh Khail,AF0502,68.9657,33.9218,1.0,1.0
1254,AF0502_V_0143,Shaikh Neyazullah,AF0502,68.9227,33.9492,1.0,1.0
1255,AF0502_V_0144,Shair Khail Sajawand,AF0502,68.8038,33.9094,1.0,1.0
1256,AF0502_V_0154,Topak,AF0502,68.8281,33.9422,1.0,1.0
1257,AF0502_V_0155,Tory Khail Chalozai,AF0502,68.8548,33.967,1.0,1.0
1258,AF0502_V_0157,Uzbek Khail,AF0502,68.974,33.9196,1.0,1.0
1259,AF0502_V_0162,Zaqumkhel,AF0502,68.9126,33.9569,1.0,1.0
1260,AF0502_V_0164,Zyawuddin,AF0502,68.94189,33.9226,1.0,1.0
1261,AF0502_V_0165,Qalae Dad Mohammad Khan,AF0502,68.977978,33.964744,1.0,1.0
1262,AF0503_V_0003,Abjosh Payen,AF0503,68.8725,33.8489,1.0,1.0
1263,AF0503_V_0013,Dabar Alow,AF0503,68.9711,33.8467,1.0,1.0
1264,AF0503_V_0028,Khowja Hai Now Shahr,AF0503,68.9245,33.7982,1.0,1.0
1265,AF0503_V_0031,Mullakay,AF0503,68.9331,33.819,1.0,1.0
1266,AF0503_V_0046,Qala Maram Baig,AF0503,68.9248,33.8116,1.0,1.0
1267,AF0503_V_0049,Qala Now,AF0503,68.9342,33.7981,1.0,1.0
1268,AF0503_V_0057,Qal'a-i-Qomandan,AF0503,68.92706,33.7788,1.0,1.0
1269,AF0503_V_0071,Shash Qala,AF0503,68.9534,33.8201,1.0,1.0
1270,AF0504_V_0002,Akhond Khail Ya Sornaw,AF0504,69.3566,33.9405,1.0,1.0
1271,AF0504_V_0003,Arat Meleka,AF0504,69.21370012,34.00370886,1.0,1.0
1272,AF0504_V_0005,Awtak,AF0504,69.2455,33.9843,1.0,1.0
1273,AF0504_V_0008,Bagh Shams,AF0504,69.2163,33.9962,1.0,1.0
1274,AF0504_V_0009,Bala Dahi Bagh Park,AF0504,69.2407,33.9926,1.0,1.0
1275,AF0504_V_0010,Baryem,AF0504,69.2878,34.0055,1.0,1.0
1276,AF0504_V_0011,Bazar Now Shahr Markaz Wolluswaly Khushi,AF0504,69.2106,34.0041,1.0,1.0
1277,AF0504_V_0012,Bulori,AF0504,69.2052,34.0089,1.0,1.0
1278,AF0504_V_0013,Chanar Khail,AF0504,69.295,33.981,1.0,1.0
1279,AF0504_V_0014,Dahi Bala Tapa,AF0504,69.2021,34.0018,1.0,1.0
1280,AF0504_V_0015,Dahi Payen Ya Zeyarat Totak,AF0504,69.1854,34.0017,1.0,1.0
1281,AF0504_V_0016,Darkh,AF0504,69.3042,34.0573,1.0,1.0
1282,AF0504_V_0018,Dokanha-i-Dobandi,AF0504,69.32569,33.96249,1.0,1.0
1283,AF0504_V_0019,Fateh Khail,AF0504,69.2252,34.0452,1.0,1.0
1284,AF0504_V_0020,Ghor Lan,AF0504,69.3719,33.9952,1.0,1.0
1285,AF0504_V_0022,Gul Mohammad Khail,AF0504,69.237,34.0306,1.0,1.0
1286,AF0504_V_0027,Kafar Dara,AF0504,69.3112,33.9212,1.0,1.0
1287,AF0504_V_0030,Kandow Toura Chayna,AF0504,69.2944,34.0292,1.0,1.0
1288,AF0504_V_0031,Karaiz Aziz Suliman Khail Kalay,AF0504,69.2498,34.0287,1.0,1.0
1289,AF0504_V_0034,Khani Khel,AF0504,69.21331571,33.99829305,1.0,1.0
1290,AF0504_V_0036,Koz Tangi,AF0504,69.2848,33.9501,1.0,1.0
1291,AF0504_V_0038,Meyan Dahi Khushi Markaz Alaqadary,AF0504,69.1957,34.0015,1.0,1.0
1292,AF0504_V_0039,Meyan Dahi Qazi Khail,AF0504,69.1902,34.0028,1.0,1.0
1293,AF0504_V_0040,Meyana Dahi Khushi Payenda Khail,AF0504,69.2093,33.9972,1.0,1.0
1294,AF0504_V_0049,Payenda Khail,AF0504,69.1379,33.9953,1.0,1.0
1295,AF0504_V_0051,Qala Rayesan,AF0504,69.191,33.9971,1.0,1.0
1296,AF0504_V_0052,Qala-e-Shokrulah,AF0504,69.18776274,33.99974089,1.0,1.0
1297,AF0504_V_0053,Qala-I-Mula Qurban,AF0504,69.163844,34.009534,1.0,1.0
1298,AF0504_V_0054,Qala-i-Najara,AF0504,69.22717817,34.00017525,1.0,1.0
1299,AF0504_V_0055,Qal'eh-ye Nazer,AF0504,69.1789,34.0049,1.0,1.0
1300,AF0504_V_0057,Qarya Shair Agha Ya Shair Dan Khail,AF0504,69.3111,34.0329,1.0,1.0
1301,AF0504_V_0058,Sanganay,AF0504,69.205,34.0095,1.0,1.0
1302,AF0504_V_0059,Sara Ghondi Akhond Khail Bala,AF0504,69.2464,33.9428,1.0,1.0
1303,AF0504_V_0062,Shinkay (1),AF0504,69.3023,33.9533,1.0,1.0
1304,AF0504_V_0065,Sultan Khail,AF0504,69.2247,34.0309,1.0,1.0
1305,AF0504_V_0067,Talkhan,AF0504,69.2046,34.009,1.0,1.0
1306,AF0504_V_0068,Tangay,AF0504,69.28999,33.95239,1.0,1.0
1307,AF0504_V_0069,Toura Tega,AF0504,69.3613,33.9824,1.0,1.0
1308,AF0504_V_0070,Zara Qala,AF0504,69.31559,33.95932,1.0,1.0
1309,AF0504_V_0072,Zenak Khola,AF0504,69.3684,33.9363,1.0,1.0
1310,AF0504_V_0073,Zinak (2),AF0504,69.3818,33.9426,1.0,1.0
1311,AF0504_V_0074,Sakari Kariz,AF0504,69.324051,33.956685,1.0,1.0
1312,AF0504_V_0075,Sare Tapa Markaz Bazar,AF0504,69.196488,34.009905,1.0,1.0
1313,AF0504_V_0077,Yamad Khail,AF0504,69.313108,34.022539,1.0,1.0
1314,AF0505_V_0038,Dara,AF0505,69.2787,34.1389,1.0,1.0
1315,AF0505_V_0048,Ghazni Khail,AF0505,69.1401,34.2428,1.0,1.0
1316,AF0505_V_0078,Kunjak Ya Rasool Khail,AF0505,69.169,34.2983,1.0,1.0
1317,AF0505_V_0079,Kutub Khail,AF0505,69.1217,34.2324,1.0,1.0
1318,AF0505_V_0080,Landi Kula,AF0505,69.0499,34.2915,1.0,1.0
1319,AF0505_V_0092,Mirajan Kalay,AF0505,69.0413,34.2986,1.0,1.0
1320,AF0505_V_0109,Paname,AF0505,69.0077,34.2939,1.0,1.0
1321,AF0505_V_0116,Qala Malik,AF0505,69.1034,34.1571,1.0,1.0
1322,AF0505_V_0136,Sang Sorakh,AF0505,69.0835,34.2687,1.0,1.0
1323,AF0506_V_0007,Baigom,AF0506,68.849,33.6808,1.0,1.0
1324,AF0506_V_0032,Khowja Angor,AF0506,69.03273,33.69743,1.0,1.0
1325,AF0506_V_0039,Kundar Khail,AF0506,68.8702,33.7164,1.0,1.0
1326,AF0506_V_0069,Yergana,AF0506,68.77509,33.64609,1.0,1.0
1327,AF0507_V_0004,Aldin,AF0507,69.5431,34.1398,1.0,1.0
1328,AF0507_V_0012,Baghak,AF0507,69.7505,34.209,1.0,1.0
1329,AF0507_V_0013,Bara Chotra,AF0507,69.6973,34.1772,1.0,1.0
1330,AF0507_V_0014,Buzergana,AF0507,69.6259,34.1679,1.0,1.0
1331,AF0507_V_0017,Darki Khail,AF0507,69.7237,34.1174,1.0,1.0
1332,AF0507_V_0022,Harab Khail,AF0507,69.7098,34.1415,1.0,1.0
1333,AF0507_V_0024,Jano Kunj,AF0507,69.7361,34.1937,1.0,1.0
1334,AF0507_V_0030,Kharoti (1),AF0507,69.456,34.0158,1.0,1.0
1335,AF0507_V_0034,Khoshal Khail,AF0507,69.633,34.1532,1.0,1.0
1336,AF0507_V_0035,Koza Chotara,AF0507,69.7111,34.1792,1.0,1.0
1337,AF0507_V_0036,Lora Mena,AF0507,69.6475,34.1111,1.0,1.0
1338,AF0507_V_0037,Malik Namdar Kalay,AF0507,69.7194,34.1353,1.0,1.0
1339,AF0507_V_0041,Mossa Khan Kalay,AF0507,69.5551,34.1486,1.0,1.0
1340,AF0507_V_0042,Mullahyan,AF0507,69.7264,34.1689,1.0,1.0
1341,AF0507_V_0043,Naghlak,AF0507,69.7659,34.1939,1.0,1.0
1342,AF0507_V_0044,Namdar Kala,AF0507,69.7187,34.1387,1.0,1.0
1343,AF0507_V_0045,Noor Khel,AF0507,69.66458,34.17785,1.0,1.0
1344,AF0507_V_0047,Osman Khail,AF0507,69.5841,34.1591,1.0,1.0
1345,AF0507_V_0048,Pokha Lara,AF0507,69.497,34.1177,1.0,1.0
1346,AF0507_V_0049,Qasemkhel (1),AF0507,69.4494,33.9588,1.0,1.0
1347,AF0507_V_0051,Raiza Khail,AF0507,69.7231,34.1229,1.0,1.0
1348,AF0507_V_0053,Rasool Khail,AF0507,69.7239,34.1551,1.0,1.0
1349,AF0507_V_0054,Salim Khail,AF0507,69.6185,34.1604,1.0,1.0
1350,AF0507_V_0056,Sayri,AF0507,69.7688,34.1785,1.0,1.0
1351,AF0507_V_0059,Shahin,AF0507,69.524,34.1261,1.0,1.0
1352,AF0507_V_0060,Shaikhan,AF0507,69.753,34.0913,1.0,1.0
1353,AF0507_V_0061,Shangay,AF0507,69.548,34.1463,1.0,1.0
1354,AF0507_V_0063,Sor Kas,AF0507,69.6379,34.1703,1.0,1.0
1355,AF0507_V_0064,Spain Jamaht,AF0507,69.7055,34.0537,1.0,1.0
1356,AF0507_V_0071,Zamankhel,AF0507,69.466,34.0308,1.0,1.0
1357,AF0507_V_0074,Bar Samad,AF0507,69.723858,34.135396,1.0,1.0
1358,AF0507_V_0075,Mohammad Yar Khail,AF0507,69.697778,34.167423,1.0,1.0
1359,AF0601_V_0001,Abdul Haq Park,AF0601,70.45665015,34.44065445,1.0,1.0
1360,AF0601_V_0002,Afghan Mina,AF0601,70.430461,34.434553,1.0,1.0
1361,AF0601_V_0003,Angur Bagh,AF0601,70.44795917,34.41987878,1.0,1.0
1362,AF0601_V_0004,Araban,AF0601,70.43951209,34.43122584,1.0,1.0
1363,AF0601_V_0005,Arbaban,AF0601,70.4444346,34.43866165,1.0,1.0
1364,AF0601_V_0006,Arzaqo Kosa,AF0601,70.44358691,34.43476529,1.0,1.0
1365,AF0601_V_0008,Beaz,AF0601,70.4672,34.4078,1.0,1.0
1366,AF0601_V_0009,Chashma-I-Khanjee,AF0601,70.46415438,34.43521143,1.0,1.0
1367,AF0601_V_0010,Chiknawri Lesa,AF0601,70.43232909,34.43445298,1.0,1.0
1368,AF0601_V_0011,Dreyum Mamuryat,AF0601,70.43649314,34.43417042,1.0,1.0
1369,AF0601_V_0012,Farmi Hada,AF0601,70.45320886,34.4149414,1.0,1.0
1370,AF0601_V_0013,Gumbazi Jumat,AF0601,70.45624267,34.41975981,1.0,1.0
1371,AF0601_V_0014,Habibullah Khan Maqbara,AF0601,70.45209349,34.43146378,1.0,1.0
1372,AF0601_V_0016,Hada-I-Chaparhar,AF0601,70.4561237,34.42567872,1.0,1.0
1373,AF0601_V_0017,Hada-I-Laghman,AF0601,70.44816737,34.42988739,1.0,1.0
1374,AF0601_V_0018,Jalalabad,AF0601,70.4503,34.4279,1.0,1.0
1375,AF0601_V_0019,Joyi Haft,AF0601,70.4386644,34.42677922,1.0,1.0
1376,AF0601_V_0020,Khalis Family,AF0601,70.45433329,34.41369259,1.0,1.0
1377,AF0601_V_0022,Mama Mina,AF0601,70.426702,34.431788,1.0,1.0
1378,AF0601_V_0023,Microrayan,AF0601,70.428864,34.43185045,1.0,1.0
1379,AF0601_V_0026,Narinj Bagh,AF0601,70.4374598,34.42084544,1.0,1.0
1380,AF0601_V_0027,Narmasi,AF0601,70.4673,34.4392,1.0,1.0
1381,AF0601_V_0028,Pinzum Mamuryat,AF0601,70.46953791,34.42267465,1.0,1.0
1382,AF0601_V_0029,Qala Dasht,AF0601,70.4234,34.4252,1.0,1.0
1383,AF0601_V_0030,Qasaba,AF0601,70.47194711,34.42929252,1.0,1.0
1384,AF0601_V_0031,Rege Shahmardkhan,AF0601,70.4419,34.4176,1.0,1.0
1385,AF0601_V_0033,Rukhan Mina,AF0601,70.46555231,34.42263003,1.0,1.0
1386,AF0601_V_0034,Shahiri Kohna,AF0601,70.4639313,34.43204378,1.0,1.0
1387,AF0601_V_0035,Shanzda Family,AF0601,70.46055544,34.42695768,1.0,1.0
1388,AF0601_V_0036,Shisham Bagh,AF0601,70.46579026,34.41849572,1.0,1.0
1389,AF0601_V_0038,Ulfat Mina,AF0601,70.429169,34.431644,1.0,1.0
1390,AF0601_V_0039,Zara Saranwali,AF0601,70.46234004,34.42103877,1.0,1.0
1391,AF0602_V_0001,Abdeyan,AF0602,70.4722,34.4501,1.0,1.0
1392,AF0602_V_0002,Ada,AF0602,70.4702,34.3592,1.0,1.0
1393,AF0602_V_0005,Bahr Abad,AF0602,70.4162,34.4525,1.0,1.0
1394,AF0602_V_0006,Banda,AF0602,70.5264,34.4011,1.0,1.0
1395,AF0602_V_0008,Behsood Khas,AF0602,70.4795,34.4475,1.0,1.0
1396,AF0602_V_0012,Beni Ga,AF0602,70.5322,34.4693,1.0,1.0
1397,AF0602_V_0013,Boland Ghar,AF0602,70.5154,34.4519,1.0,1.0
1398,AF0602_V_0014,Champar,AF0602,70.5098,34.447,1.0,1.0
1399,AF0602_V_0016,Chora Kalay,AF0602,70.4895,34.4476,1.0,1.0
1400,AF0602_V_0017,Daman,AF0602,70.5339,34.4756,1.0,1.0
1401,AF0602_V_0019,Dobanday,AF0602,70.5078,34.4537,1.0,1.0
1402,AF0602_V_0021,Dubila,AF0602,70.4644072,34.44524681,1.0,1.0
1403,AF0602_V_0022,Eakhlas Abad,AF0602,70.4949,34.4327,1.0,1.0
1404,AF0602_V_0025,Gaowmesh,AF0602,70.4555,34.4455,1.0,1.0
1405,AF0602_V_0026,Gardi Kas,AF0602,70.6639,34.3854,1.0,1.0
1406,AF0602_V_0028,Gul Abad,AF0602,70.526092,34.434264,1.0,1.0
1407,AF0602_V_0031,Hemat Abad,AF0602,70.47120677,34.39246466,1.0,1.0
1408,AF0602_V_0038,Jowi Dahi Sharqe,AF0602,70.4795,34.3783,1.0,1.0
1409,AF0602_V_0041,Kakaran,AF0602,70.5109,34.4401,1.0,1.0
1410,AF0602_V_0046,Karaiz Kabir,AF0602,70.5179,34.3756,1.0,1.0
1411,AF0602_V_0047,Karaiz Kabir Ya Naqelin,AF0602,70.5115,34.3809,1.0,1.0
1412,AF0602_V_0051,Khosh Gonbad,AF0602,70.5148,34.4039,1.0,1.0
1413,AF0602_V_0055,Malik Beala,AF0602,70.5043,34.4302,1.0,1.0
1414,AF0602_V_0061,Naghlo Jowi 15,AF0602,70.536725,34.362354,1.0,1.0
1415,AF0602_V_0062,Nahr Shahi,AF0602,70.5071,34.4073,1.0,1.0
1416,AF0602_V_0068,Paitow,AF0602,70.5286,34.3725,1.0,1.0
1417,AF0602_V_0072,Per Sahib Kalay,AF0602,70.4896,34.4561,1.0,1.0
1418,AF0602_V_0073,Perawar,AF0602,70.5255,34.4521,1.0,1.0
1419,AF0602_V_0079,Qala Hussain,AF0602,70.5225,34.468,1.0,1.0
1420,AF0602_V_0081,Qala Malakh Ha,AF0602,70.5092,34.4664,1.0,1.0
1421,AF0602_V_0083,Qala Muslim,AF0602,70.5324,34.4622,1.0,1.0
1422,AF0602_V_0085,Qala Shaikha,AF0602,70.4569,34.4591,1.0,1.0
1423,AF0602_V_0091,Qasim Abad,AF0602,70.4531,34.4526,1.0,1.0
1424,AF0602_V_0092,Samar Khail,AF0602,70.569,34.3675,1.0,1.0
1425,AF0602_V_0094,Sar Dewal,AF0602,70.5639,34.3485,1.0,1.0
1426,AF0602_V_0095,Saracha,AF0602,70.536,34.3747,1.0,1.0
1427,AF0602_V_0097,Saracha Arabeya,AF0602,70.5355,34.3699,1.0,1.0
1428,AF0602_V_0099,Shaikh Ali,AF0602,70.5155,34.4579,1.0,1.0
1429,AF0602_V_0101,Spen Kalay,AF0602,70.5892,34.3685,1.0,1.0
1430,AF0602_V_0104,Taghar,AF0602,70.4432,34.4605,1.0,1.0
1431,AF0602_V_0106,Tamirat,AF0602,70.47342535,34.44446159,1.0,1.0
1432,AF0602_V_0107,Tangi,AF0602,70.5479,34.4802,1.0,1.0
1433,AF0602_V_0111,Tawheed Abad,AF0602,70.51531704,34.40621705,1.0,1.0
1434,AF0602_V_0112,Wollayte,AF0602,70.4961,34.4393,1.0,1.0
1435,AF0602_V_0113,Zangoye,AF0602,70.4926,34.4268,1.0,1.0
1436,AF0603_V_0008,Amarkhail Band,AF0603,70.365451651,34.472986770069,1.0,1.0
1437,AF0603_V_0011,Bagrami,AF0603,70.4001,34.44348,1.0,1.0
1438,AF0603_V_0012,Bakhtan,AF0603,70.4011,34.4282,1.0,1.0
1439,AF0603_V_0024,Beatne,AF0603,70.3658,34.4555,1.0,1.0
1440,AF0603_V_0029,Char Bagh Safa,AF0603,70.3797,34.4267,1.0,1.0
1441,AF0603_V_0030,Chiknawri,AF0603,70.4280758,34.43634168,1.0,1.0
1442,AF0603_V_0031,Choni,AF0603,70.3774,34.4536,1.0,1.0
1443,AF0603_V_0032,Dahi Balo,AF0603,70.3568,34.4426,1.0,1.0
1444,AF0603_V_0033,Dahi Walid Hulya,AF0603,70.3405,34.447,1.0,1.0
1445,AF0603_V_0040,Fateh Abad,AF0603,70.2262,34.3591,1.0,1.0
1446,AF0603_V_0042,Ghochak,AF0603,70.41232,34.42422,1.0,1.0
1447,AF0603_V_0045,Gulan Banda,AF0603,70.3509,34.4637,1.0,1.0
1448,AF0603_V_0048,Haji Sahiban,AF0603,70.3343,34.4284,1.0,1.0
1449,AF0603_V_0049,Hajrat Qala,AF0603,70.3387,34.4642,1.0,1.0
1450,AF0603_V_0055,Khalowa,AF0603,70.4034,34.4196,1.0,1.0
1451,AF0603_V_0056,Khayrabad,AF0603,70.2539,34.3862,1.0,1.0
1452,AF0603_V_0057,Koshkak,AF0603,70.2925,34.406,1.0,1.0
1453,AF0603_V_0066,Marghondai,AF0603,70.23737352,34.35240931,1.0,1.0
1454,AF0603_V_0068,Meya Gan,AF0603,70.3877,34.4393,1.0,1.0
1455,AF0603_V_0069,Miran (1),AF0603,70.4057,34.4344,1.0,1.0
1456,AF0603_V_0070,Mirza Ali Abad,AF0603,70.3753,34.4347,1.0,1.0
1457,AF0603_V_0072,Mirzayan,AF0603,70.3672,34.4437,1.0,1.0
1458,AF0603_V_0073,Moi- Mobarak,AF0603,70.39463381,34.44446999,1.0,1.0
1459,AF0603_V_0081,Nazar Abad,AF0603,70.3657,34.4684,1.0,1.0
1460,AF0603_V_0089,Qala Mahroof (1),AF0603,70.3543,34.4369,1.0,1.0
1461,AF0603_V_0098,Sawati,AF0603,70.368671992,34.4304688397151,1.0,1.0
1462,AF0603_V_0099,Sayedan Foladi,AF0603,70.3194,34.4212,1.0,1.0
1463,AF0603_V_0101,Seya Sang,AF0603,70.3714,34.3979,1.0,1.0
1464,AF0603_V_0103,Shaikh Mesri,AF0603,70.3167,34.3663,1.0,1.0
1465,AF0603_V_0104,Shamsha Pur,AF0603,70.2866,34.4137,1.0,1.0
1466,AF0603_V_0107,Souz Abad,AF0603,70.3881,34.451,1.0,1.0
1467,AF0603_V_0111,Sultan Pur Sufla,AF0603,70.3248,34.4148,1.0,1.0
1468,AF0603_V_0117,Zerani,AF0603,70.42031,34.4327,1.0,1.0
1469,AF0603_V_0120,Zulum Abad,AF0603,70.3753,34.4481,1.0,1.0
1470,AF0604_V_0001,Abdulrahmani,AF0604,70.3948,34.2256,1.0,1.0
1471,AF0604_V_0002,Aghzo Kalay,AF0604,70.4055,34.2984,1.0,1.0
1472,AF0604_V_0004,Ahmadzi,AF0604,70.40449728,34.30740987,1.0,1.0
1473,AF0604_V_0005,Akhundzad Gan,AF0604,70.3785468,34.29792389,1.0,1.0
1474,AF0604_V_0006,Alah Dad Khil,AF0604,70.39936917,34.30622908,1.0,1.0
1475,AF0604_V_0007,Asha Kheil,AF0604,70.32390079,34.24271598,1.0,1.0
1476,AF0604_V_0008,Banda Miran,AF0604,70.3592,34.2647,1.0,1.0
1477,AF0604_V_0009,Bebe Mahro,AF0604,70.4052,34.3092,1.0,1.0
1478,AF0604_V_0011,Chaperhar Ya Akhound Kalay,AF0604,70.3583,34.2743,1.0,1.0
1479,AF0604_V_0012,Chen Chena,AF0604,70.4399,34.3091,1.0,1.0
1480,AF0604_V_0013,Chena,AF0604,70.3995,34.3141,1.0,1.0
1481,AF0604_V_0014,Dago Kalay,AF0604,70.3228,34.2582,1.0,1.0
1482,AF0604_V_0016,Dak Ghulam Khan,AF0604,70.45797,34.30115,1.0,1.0
1483,AF0604_V_0017,Dak Ghulam Khan-2,AF0604,70.45370862,34.29428143,1.0,1.0
1484,AF0604_V_0018,Darwish Khil,AF0604,70.40782004,34.30242497,1.0,1.0
1485,AF0604_V_0019,Dawlat Abad,AF0604,70.40628848,34.33008941,1.0,1.0
1486,AF0604_V_0021,Dowood Zai,AF0604,70.3998,34.3003,1.0,1.0
1487,AF0604_V_0023,Etihad Family,AF0604,70.4356932,34.33787149,1.0,1.0
1488,AF0604_V_0025,Garatik Wa Meyagan,AF0604,70.3509,34.2526,1.0,1.0
1489,AF0604_V_0026,Gazak,AF0604,70.4191,34.2802,1.0,1.0
1490,AF0604_V_0027,Ghar Abad,AF0604,70.3757,34.2904,1.0,1.0
1491,AF0604_V_0029,Gulshah Kalay,AF0604,70.321,34.2484,1.0,1.0
1492,AF0604_V_0030,Gulshan Abad Kalay,AF0604,70.3468624,34.25742928,1.0,1.0
1493,AF0604_V_0031,Hafezan,AF0604,70.3693,34.2852,1.0,1.0
1494,AF0604_V_0034,Hajiyan,AF0604,70.3222,34.3009,1.0,1.0
1495,AF0604_V_0035,Halim Mama Kalay,AF0604,70.3653,34.2553,1.0,1.0
1496,AF0604_V_0038,Jalozai,AF0604,70.3493,34.3268,1.0,1.0
1497,AF0604_V_0042,Karaiz Akhound Zadagan,AF0604,70.348,34.2809,1.0,1.0
1498,AF0604_V_0045,Koza Godara,AF0604,70.3501,34.2605,1.0,1.0
1499,AF0604_V_0048,Kunar Safayan,AF0604,70.42806013,34.33090839,1.0,1.0
1500,AF0604_V_0049,Kundi Bagh,AF0604,70.3861,34.2859,1.0,1.0
1501,AF0604_V_0050,Lalm,AF0604,70.457,34.3365,1.0,1.0
1502,AF0604_V_0052,Landon,AF0604,70.3856,34.282,1.0,1.0
1503,AF0604_V_0054,Lotgapur,AF0604,70.3668,34.2709,1.0,1.0
1504,AF0604_V_0057,Mandar Khail,AF0604,70.3318,34.2437,1.0,1.0
1505,AF0604_V_0058,Mano Kalay,AF0604,70.3099,34.2458,1.0,1.0
1506,AF0604_V_0059,Masta Khail,AF0604,70.3378,34.2515,1.0,1.0
1507,AF0604_V_0060,Mawara,AF0604,70.313,34.24,1.0,1.0
1508,AF0604_V_0061,Muden Kaly,AF0604,70.41885973,34.31299936,1.0,1.0
1509,AF0604_V_0064,Par Kan,AF0604,70.4444,34.3173,1.0,1.0
1510,AF0604_V_0066,Patiray,AF0604,70.3154,34.2935,1.0,1.0
1511,AF0604_V_0067,Pesta Kaly,AF0604,70.36811602,34.34368359,1.0,1.0
1512,AF0604_V_0068,Qala Shaikh,AF0604,70.3648,34.2914,1.0,1.0
